[{"GeonameId":686349,"Name":"Comuna Andreia\u015fu de Jos","Latitude":"45.73669","Longitude":"26.82752","CountryCode":"RO","Population":0,"Status":200,"Created":"2015-10-23 09:20:58","Updated":"2015-10-23 09:20:58"},{"GeonameId":684850,"Name":"Comuna Bilie\u015fti","Latitude":"45.72106","Longitude":"27.34879","CountryCode":"RO","Population":0,"Status":200,"Created":"2015-10-23 09:20:58","Updated":"2015-10-23 09:20:58"},{"GeonameId":684375,"Name":"Comuna Boghe\u015fti","Latitude":"46.16211","Longitude":"27.41871","CountryCode":"RO","Population":0,"Status":200,"Created":"2015-10-23 09:20:58","Updated":"2015-10-23 09:20:58"},{"GeonameId":684261,"Name":"Comuna Bolote\u015fti","Latitude":"45.84486","Longitude":"27.07287","CountryCode":"RO","Population":0,"Status":200,"Created":"2015-10-23 09:20:58","Updated":"2015-10-23 09:20:58"},{"GeonameId":684210,"Name":"Comuna Borde\u015fti","Latitude":"45.54715","Longitude":"27.04104","CountryCode":"RO","Population":0,"Status":200,"Created":"2015-10-23 09:20:58","Updated":"2015-10-23 09:20:58"},{"GeonameId":683629,"Name":"Comuna Bro\u015fteni","Latitude":"45.76566","Longitude":"27.01305","CountryCode":"RO","Population":0,"Status":200,"Created":"2015-10-23 09:20:58","Updated":"2015-10-23 09:20:58"},{"GeonameId":684748,"Name":"Comuna B\u00e2rse\u015fti","Latitude":"45.90724","Longitude":"26.74716","CountryCode":"RO","Population":0,"Status":200,"Created":"2015-10-23 09:20:58","Updated":"2015-10-23 09:20:58"},{"GeonameId":685623,"Name":"Comuna B\u0103le\u015fti","Latitude":"45.44034","Longitude":"27.23703","CountryCode":"RO","Population":0,"Status":200,"Created":"2015-10-23 09:20:58","Updated":"2015-10-23 09:20:58"},{"GeonameId":682078,"Name":"Comuna Chiojdeni","Latitude":"45.56113","Longitude":"26.84389","CountryCode":"RO","Population":0,"Status":200,"Created":"2015-10-23 09:20:58","Updated":"2015-10-23 09:20:58"},{"GeonameId":681662,"Name":"Comuna Cior\u0103\u015fti","Latitude":"45.43869","Longitude":"27.30952","CountryCode":"RO","Population":0,"Status":200,"Created":"2015-10-23 09:20:58","Updated":"2015-10-23 09:20:58"},{"GeonameId":680873,"Name":"Comuna Corbi\u0163a","Latitude":"46.16325","Longitude":"27.30861","CountryCode":"RO","Population":0,"Status":200,"Created":"2015-10-23 09:20:58","Updated":"2015-10-23 09:20:58"},{"GeonameId":680508,"Name":"Comuna Cote\u015fti","Latitude":"45.63689","Longitude":"27.07546","CountryCode":"RO","Population":0,"Status":200,"Created":"2015-10-23 09:20:58","Updated":"2015-10-23 09:20:58"},{"GeonameId":681860,"Name":"Comuna C\u00e2mpineanca","Latitude":"45.70838","Longitude":"27.13191","CountryCode":"RO","Population":0,"Status":200,"Created":"2015-10-23 09:20:58","Updated":"2015-10-23 09:20:58"},{"GeonameId":681835,"Name":"Comuna C\u00e2mpuri","Latitude":"46.03618","Longitude":"26.75425","CountryCode":"RO","Population":0,"Status":200,"Created":"2015-10-23 09:20:58","Updated":"2015-10-23 09:20:58"},{"GeonameId":681558,"Name":"Comuna C\u00e2rligele","Latitude":"45.67723","Longitude":"27.06031","CountryCode":"RO","Population":0,"Status":200,"Created":"2015-10-23 09:20:58","Updated":"2015-10-23 09:20:58"},{"GeonameId":678650,"Name":"Comuna Dumitre\u015fti","Latitude":"45.57715","Longitude":"26.90728","CountryCode":"RO","Population":0,"Status":200,"Created":"2015-10-23 09:20:58","Updated":"2015-10-23 09:20:58"},{"GeonameId":678097,"Name":"Comuna Fitione\u015fti","Latitude":"45.96655","Longitude":"27.06953","CountryCode":"RO","Population":0,"Status":200,"Created":"2015-10-23 09:20:58","Updated":"2015-10-23 09:20:58"},{"GeonameId":8334851,"Name":"Comuna Garoafa","Latitude":"45.79812","Longitude":"27.2501","CountryCode":"RO","Population":0,"Status":200,"Created":"2015-10-23 09:20:58","Updated":"2015-10-23 09:20:58"},{"GeonameId":676942,"Name":"Comuna Gole\u015fti","Latitude":"45.66603","Longitude":"27.16708","CountryCode":"RO","Population":0,"Status":200,"Created":"2015-10-23 09:20:58","Updated":"2015-10-23 09:20:58"},{"GeonameId":676933,"Name":"Comuna Gologanu","Latitude":"45.60979","Longitude":"27.27091","CountryCode":"RO","Population":0,"Status":200,"Created":"2015-10-23 09:20:58","Updated":"2015-10-23 09:20:58"},{"GeonameId":676584,"Name":"Comuna Guge\u015fti","Latitude":"45.57982","Longitude":"27.1437","CountryCode":"RO","Population":0,"Status":200,"Created":"2015-10-23 09:20:58","Updated":"2015-10-23 09:20:58"},{"GeonameId":676556,"Name":"Comuna Gura Cali\u0163ei","Latitude":"45.61357","Longitude":"26.97284","CountryCode":"RO","Population":0,"Status":200,"Created":"2015-10-23 09:20:58","Updated":"2015-10-23 09:20:58"},{"GeonameId":676062,"Name":"Comuna Homocea","Latitude":"46.15796","Longitude":"27.23108","CountryCode":"RO","Population":0,"Status":200,"Created":"2015-10-23 09:20:58","Updated":"2015-10-23 09:20:58"},{"GeonameId":675292,"Name":"Comuna Jari\u015ftea","Latitude":"45.79987","Longitude":"27.04257","CountryCode":"RO","Population":0,"Status":200,"Created":"2015-10-23 09:20:58","Updated":"2015-10-23 09:20:58"},{"GeonameId":675207,"Name":"Comuna Jitia","Latitude":"45.5848","Longitude":"26.74876","CountryCode":"RO","Population":0,"Status":200,"Created":"2015-10-23 09:20:58","Updated":"2015-10-23 09:20:58"},{"GeonameId":673592,"Name":"Comuna Mera","Latitude":"45.77327","Longitude":"26.93423","CountryCode":"RO","Population":0,"Status":200,"Created":"2015-10-23 09:20:58","Updated":"2015-10-23 09:20:58"},{"GeonameId":8334937,"Name":"Comuna Milcovul","Latitude":"45.65207","Longitude":"27.25928","CountryCode":"RO","Population":0,"Status":200,"Created":"2015-10-23 09:20:58","Updated":"2015-10-23 09:20:58"},{"GeonameId":672717,"Name":"Comuna Movili\u0163a","Latitude":"45.9575","Longitude":"27.10487","CountryCode":"RO","Population":0,"Status":200,"Created":"2015-10-23 09:20:58","Updated":"2015-10-23 09:20:58"},{"GeonameId":674065,"Name":"Comuna M\u0103ic\u0103ne\u015fti","Latitude":"45.50067","Longitude":"27.46121","CountryCode":"RO","Population":0,"Status":200,"Created":"2015-10-23 09:20:58","Updated":"2015-10-23 09:20:58"},{"GeonameId":672356,"Name":"Comuna Negrile\u015fti","Latitude":"45.93697","Longitude":"26.70635","CountryCode":"RO","Population":0,"Status":200,"Created":"2015-10-23 09:20:58","Updated":"2015-10-23 09:20:58"},{"GeonameId":672300,"Name":"Comuna Nereju","Latitude":"45.70833","Longitude":"26.69794","CountryCode":"RO","Population":0,"Status":200,"Created":"2015-10-23 09:20:58","Updated":"2015-10-23 09:20:58"},{"GeonameId":672189,"Name":"Comuna Nistore\u015fti","Latitude":"45.81578","Longitude":"26.67728","CountryCode":"RO","Population":0,"Status":200,"Created":"2015-10-23 09:20:58","Updated":"2015-10-23 09:20:58"},{"GeonameId":672514,"Name":"Comuna N\u0103ne\u015fti","Latitude":"45.57801","Longitude":"27.49988","CountryCode":"RO","Population":0,"Status":200,"Created":"2015-10-23 09:20:58","Updated":"2015-10-23 09:20:58"},{"GeonameId":672500,"Name":"Comuna N\u0103ruja","Latitude":"45.82308","Longitude":"26.76617","CountryCode":"RO","Population":0,"Status":200,"Created":"2015-10-23 09:20:58","Updated":"2015-10-23 09:20:58"},{"GeonameId":8334996,"Name":"Comuna Obreji\u0163a","Latitude":"45.50102","Longitude":"27.08974","CountryCode":"RO","Population":0,"Status":200,"Created":"2015-10-23 09:20:58","Updated":"2015-10-23 09:20:58"},{"GeonameId":671441,"Name":"Comuna Paltin","Latitude":"45.77918","Longitude":"26.7477","CountryCode":"RO","Population":0,"Status":200,"Created":"2015-10-23 09:20:58","Updated":"2015-10-23 09:20:58"},{"GeonameId":670399,"Name":"Comuna Ploscu\u0163eni","Latitude":"46.06103","Longitude":"27.26595","CountryCode":"RO","Population":0,"Status":200,"Created":"2015-10-23 09:20:58","Updated":"2015-10-23 09:20:58"},{"GeonameId":8334990,"Name":"Comuna Poiana Cristei","Latitude":"45.66882","Longitude":"26.97125","CountryCode":"RO","Population":0,"Status":200,"Created":"2015-10-23 09:20:58","Updated":"2015-10-23 09:20:58"},{"GeonameId":669877,"Name":"Comuna Pope\u015fti","Latitude":"45.58983","Longitude":"27.0656","CountryCode":"RO","Population":0,"Status":200,"Created":"2015-10-23 09:20:58","Updated":"2015-10-23 09:20:58"},{"GeonameId":669502,"Name":"Comuna Pufe\u015fti","Latitude":"46.01111","Longitude":"27.20901","CountryCode":"RO","Population":0,"Status":200,"Created":"2015-10-23 09:20:58","Updated":"2015-10-23 09:20:58"},{"GeonameId":671222,"Name":"Comuna P\u0103ule\u015fti","Latitude":"45.88712","Longitude":"26.68703","CountryCode":"RO","Population":0,"Status":200,"Created":"2015-10-23 09:20:58","Updated":"2015-10-23 09:20:58"},{"GeonameId":671207,"Name":"Comuna P\u0103une\u015fti","Latitude":"46.04066","Longitude":"27.10336","CountryCode":"RO","Population":0,"Status":200,"Created":"2015-10-23 09:20:58","Updated":"2015-10-23 09:20:58"},{"GeonameId":668992,"Name":"Comuna Reghiu","Latitude":"45.79672","Longitude":"26.83648","CountryCode":"RO","Population":0,"Status":200,"Created":"2015-10-23 09:20:58","Updated":"2015-10-23 09:20:58"},{"GeonameId":668493,"Name":"Comuna Rugine\u015fti","Latitude":"46.07885","Longitude":"27.11803","CountryCode":"RO","Population":0,"Status":200,"Created":"2015-10-23 09:20:58","Updated":"2015-10-23 09:20:58"},{"GeonameId":669347,"Name":"Comuna R\u0103coasa","Latitude":"45.99786","Longitude":"26.88548","CountryCode":"RO","Population":0,"Status":200,"Created":"2015-10-23 09:20:58","Updated":"2015-10-23 09:20:58"},{"GeonameId":669136,"Name":"Comuna R\u0103stoaca","Latitude":"45.66083","Longitude":"27.28723","CountryCode":"RO","Population":0,"Status":200,"Created":"2015-10-23 09:20:58","Updated":"2015-10-23 09:20:58"},{"GeonameId":667215,"Name":"Comuna Sihlea","Latitude":"45.49398","Longitude":"27.15629","CountryCode":"RO","Population":0,"Status":200,"Created":"2015-10-23 09:20:58","Updated":"2015-10-23 09:20:58"},{"GeonameId":666675,"Name":"Comuna Slobozia Bradului","Latitude":"45.49203","Longitude":"27.03977","CountryCode":"RO","Population":0,"Status":200,"Created":"2015-10-23 09:20:58","Updated":"2015-10-23 09:20:58"},{"GeonameId":666672,"Name":"Comuna Slobozia-Cior\u0103\u015fti","Latitude":"45.60606","Longitude":"27.21399","CountryCode":"RO","Population":0,"Status":200,"Created":"2015-10-23 09:20:58","Updated":"2015-10-23 09:20:58"},{"GeonameId":666392,"Name":"Comuna Soveja","Latitude":"45.99705","Longitude":"26.65351","CountryCode":"RO","Population":0,"Status":200,"Created":"2015-10-23 09:20:58","Updated":"2015-10-23 09:20:58"},{"GeonameId":666331,"Name":"Comuna Spulber","Latitude":"45.74654","Longitude":"26.73925","CountryCode":"RO","Population":0,"Status":200,"Created":"2015-10-23 09:20:58","Updated":"2015-10-23 09:20:58"},{"GeonameId":666006,"Name":"Comuna Str\u0103oane","Latitude":"45.92895","Longitude":"27.04359","CountryCode":"RO","Population":0,"Status":200,"Created":"2015-10-23 09:20:58","Updated":"2015-10-23 09:20:58"},{"GeonameId":665753,"Name":"Comuna Suraia","Latitude":"45.68066","Longitude":"27.38419","CountryCode":"RO","Population":0,"Status":200,"Created":"2015-10-23 09:20:58","Updated":"2015-10-23 09:20:58"},{"GeonameId":664506,"Name":"Comuna Tulnici","Latitude":"45.93283","Longitude":"26.60452","CountryCode":"RO","Population":0,"Status":200,"Created":"2015-10-23 09:20:58","Updated":"2015-10-23 09:20:58"},{"GeonameId":665094,"Name":"Comuna T\u00e2mboe\u015fti","Latitude":"45.51792","Longitude":"27.04555","CountryCode":"RO","Population":0,"Status":200,"Created":"2015-10-23 09:20:58","Updated":"2015-10-23 09:20:58"},{"GeonameId":8334857,"Name":"Comuna T\u00e3t\u00e3ranu","Latitude":"45.51621","Longitude":"27.3093","CountryCode":"RO","Population":0,"Status":200,"Created":"2015-10-23 09:20:58","Updated":"2015-10-23 09:20:58"},{"GeonameId":665543,"Name":"Comuna T\u0103n\u0103soaia","Latitude":"46.10161","Longitude":"27.37982","CountryCode":"RO","Population":0,"Status":200,"Created":"2015-10-23 09:20:58","Updated":"2015-10-23 09:20:58"},{"GeonameId":664168,"Name":"Comuna Ureche\u015fti","Latitude":"45.60181","Longitude":"27.07141","CountryCode":"RO","Population":0,"Status":200,"Created":"2015-10-23 09:20:58","Updated":"2015-10-23 09:20:58"},{"GeonameId":663445,"Name":"Comuna Valea S\u0103rii","Latitude":"45.87892","Longitude":"26.80823","CountryCode":"RO","Population":0,"Status":200,"Created":"2015-10-23 09:20:58","Updated":"2015-10-23 09:20:58"},{"GeonameId":662966,"Name":"Comuna Vidra","Latitude":"45.9142","Longitude":"26.90506","CountryCode":"RO","Population":0,"Status":200,"Created":"2015-10-23 09:20:58","Updated":"2015-10-23 09:20:58"},{"GeonameId":662798,"Name":"Comuna Vintileasca","Latitude":"45.6297","Longitude":"26.72608","CountryCode":"RO","Population":0,"Status":200,"Created":"2015-10-23 09:20:58","Updated":"2015-10-23 09:20:58"},{"GeonameId":8334772,"Name":"Comuna Vizantea-Livezi","Latitude":"45.96233","Longitude":"26.81347","CountryCode":"RO","Population":0,"Status":200,"Created":"2015-10-23 09:20:58","Updated":"2015-10-23 09:20:58"},{"GeonameId":662436,"Name":"Comuna Vr\u00e2ncioaia","Latitude":"45.87169","Longitude":"26.70971","CountryCode":"RO","Population":0,"Status":200,"Created":"2015-10-23 09:20:58","Updated":"2015-10-23 09:20:58"},{"GeonameId":662384,"Name":"Comuna Vulturu","Latitude":"45.60783","Longitude":"27.42281","CountryCode":"RO","Population":0,"Status":200,"Created":"2015-10-23 09:20:58","Updated":"2015-10-23 09:20:58"},{"GeonameId":662831,"Name":"Comuna V\u00e2n\u0103tori","Latitude":"45.73875","Longitude":"27.26951","CountryCode":"RO","Population":0,"Status":200,"Created":"2015-10-23 09:20:58","Updated":"2015-10-23 09:20:58"},{"GeonameId":662737,"Name":"Comuna V\u00e2rte\u015fcoiu","Latitude":"45.72465","Longitude":"27.06471","CountryCode":"RO","Population":0,"Status":200,"Created":"2015-10-23 09:20:58","Updated":"2015-10-23 09:20:58"},{"GeonameId":665149,"Name":"Comuna \u0162ife\u015fti","Latitude":"45.85329","Longitude":"27.10387","CountryCode":"RO","Population":0,"Status":200,"Created":"2015-10-23 09:20:58","Updated":"2015-10-23 09:20:58"},{"GeonameId":678699,"Name":"Comun\u0103 Dumbr\u0103veni","Latitude":"45.55416","Longitude":"27.09037","CountryCode":"RO","Population":0,"Status":200,"Created":"2015-10-23 09:20:58","Updated":"2015-10-23 09:20:58"},{"GeonameId":8334958,"Name":"Municipiul  Adjud","Latitude":"46.11464","Longitude":"27.19284","CountryCode":"RO","Population":0,"Status":200,"Created":"2015-10-23 09:20:58","Updated":"2015-10-23 09:20:58"},{"GeonameId":8334936,"Name":"Municipiul Foc\u015fani","Latitude":"45.69004","Longitude":"27.22774","CountryCode":"RO","Population":0,"Status":200,"Created":"2015-10-23 09:20:58","Updated":"2015-10-23 09:20:58"},{"GeonameId":8334935,"Name":"Ora\u015f M\u00e3r\u00e3\u015fe\u015fti","Latitude":"45.90446","Longitude":"27.22305","CountryCode":"RO","Population":0,"Status":200,"Created":"2015-10-23 09:20:58","Updated":"2015-10-23 09:20:58"},{"GeonameId":8334932,"Name":"Ora\u015f Odobe\u015fti","Latitude":"45.75011","Longitude":"27.08754","CountryCode":"RO","Population":0,"Status":200,"Created":"2015-10-23 09:20:58","Updated":"2015-10-23 09:20:58"},{"GeonameId":8334934,"Name":"Ora\u015f Panciu","Latitude":"45.90661","Longitude":"27.09358","CountryCode":"RO","Population":0,"Status":200,"Created":"2015-10-23 09:20:58","Updated":"2015-10-23 09:20:58"}]