[{"GeonameId":685724,"Name":"Comuna Balaci","Latitude":"44.35188","Longitude":"24.90962","CountryCode":"RO","Population":0,"Status":200,"Created":"2015-10-23 09:20:59","Updated":"2015-10-23 09:20:59"},{"GeonameId":685206,"Name":"Comuna Beciu","Latitude":"44.01272","Longitude":"24.66163","CountryCode":"RO","Population":0,"Status":200,"Created":"2015-10-23 09:20:59","Updated":"2015-10-23 09:20:59"},{"GeonameId":684952,"Name":"Comuna Beuca","Latitude":"44.26595","Longitude":"24.97928","CountryCode":"RO","Population":0,"Status":200,"Created":"2015-10-23 09:20:59","Updated":"2015-10-23 09:20:59"},{"GeonameId":684584,"Name":"Comuna Bleje\u015fti","Latitude":"44.30317","Longitude":"25.45269","CountryCode":"RO","Population":0,"Status":200,"Created":"2015-10-23 09:20:59","Updated":"2015-10-23 09:20:59"},{"GeonameId":8334684,"Name":"Comuna Bogdana","Latitude":"43.9286","Longitude":"25.08358","CountryCode":"RO","Population":0,"Status":200,"Created":"2015-10-23 09:20:59","Updated":"2015-10-23 09:20:59"},{"GeonameId":684044,"Name":"Comuna Botoroaga","Latitude":"44.14997","Longitude":"25.55171","CountryCode":"RO","Population":0,"Status":200,"Created":"2015-10-23 09:20:59","Updated":"2015-10-23 09:20:59"},{"GeonameId":683912,"Name":"Comuna Bragadiru","Latitude":"43.76059","Longitude":"25.51984","CountryCode":"RO","Population":0,"Status":200,"Created":"2015-10-23 09:20:59","Updated":"2015-10-23 09:20:59"},{"GeonameId":683684,"Name":"Comuna Br\u00e2nceni","Latitude":"43.87792","Longitude":"25.39711","CountryCode":"RO","Population":0,"Status":200,"Created":"2015-10-23 09:20:59","Updated":"2015-10-23 09:20:59"},{"GeonameId":8334914,"Name":"Comuna Bujoreni","Latitude":"44.12054","Longitude":"25.65152","CountryCode":"RO","Population":0,"Status":200,"Created":"2015-10-23 09:20:59","Updated":"2015-10-23 09:20:59"},{"GeonameId":683339,"Name":"Comuna Bujoru","Latitude":"43.71092","Longitude":"25.56315","CountryCode":"RO","Population":0,"Status":200,"Created":"2015-10-23 09:20:59","Updated":"2015-10-23 09:20:59"},{"GeonameId":683110,"Name":"Comuna Buzescu","Latitude":"44.01081","Longitude":"25.22886","CountryCode":"RO","Population":0,"Status":200,"Created":"2015-10-23 09:20:59","Updated":"2015-10-23 09:20:59"},{"GeonameId":685993,"Name":"Comuna B\u0103b\u0103i\u0163a","Latitude":"44.13909","Longitude":"25.39156","CountryCode":"RO","Population":0,"Status":200,"Created":"2015-10-23 09:20:59","Updated":"2015-10-23 09:20:59"},{"GeonameId":682277,"Name":"Comuna Cervenia","Latitude":"43.83585","Longitude":"25.4605","CountryCode":"RO","Population":0,"Status":200,"Created":"2015-10-23 09:20:59","Updated":"2015-10-23 09:20:59"},{"GeonameId":681696,"Name":"Comuna Ciol\u0103ne\u015fti","Latitude":"44.31372","Longitude":"25.08333","CountryCode":"RO","Population":0,"Status":200,"Created":"2015-10-23 09:20:59","Updated":"2015-10-23 09:20:59"},{"GeonameId":681401,"Name":"Comuna Ciuperceni","Latitude":"43.75115","Longitude":"24.94397","CountryCode":"RO","Population":0,"Status":200,"Created":"2015-10-23 09:20:59","Updated":"2015-10-23 09:20:59"},{"GeonameId":680949,"Name":"Comuna Con\u0163e\u015fti","Latitude":"43.79183","Longitude":"25.4953","CountryCode":"RO","Population":0,"Status":200,"Created":"2015-10-23 09:20:59","Updated":"2015-10-23 09:20:59"},{"GeonameId":680622,"Name":"Comuna Cosme\u015fti","Latitude":"44.30661","Longitude":"25.38602","CountryCode":"RO","Population":0,"Status":200,"Created":"2015-10-23 09:20:59","Updated":"2015-10-23 09:20:59"},{"GeonameId":680251,"Name":"Comuna Crevenicu","Latitude":"44.24508","Longitude":"25.57385","CountryCode":"RO","Population":0,"Status":200,"Created":"2015-10-23 09:20:59","Updated":"2015-10-23 09:20:59"},{"GeonameId":680227,"Name":"Comuna Cr\u00e2ngeni","Latitude":"44.0137","Longitude":"24.80845","CountryCode":"RO","Population":0,"Status":200,"Created":"2015-10-23 09:20:59","Updated":"2015-10-23 09:20:59"},{"GeonameId":680219,"Name":"Comuna Cr\u00e2ngu","Latitude":"43.8449","Longitude":"25.08121","CountryCode":"RO","Population":0,"Status":200,"Created":"2015-10-23 09:20:59","Updated":"2015-10-23 09:20:59"},{"GeonameId":8334709,"Name":"Comuna C\u00e3lm\u00e3\u0163uiu","Latitude":"43.96083","Longitude":"24.85612","CountryCode":"RO","Population":0,"Status":200,"Created":"2015-10-23 09:20:59","Updated":"2015-10-23 09:20:59"},{"GeonameId":8334973,"Name":"Comuna C\u00e3lm\u00e3\u0163uiu De Sus","Latitude":"44.04404","Longitude":"24.81582","CountryCode":"RO","Population":0,"Status":200,"Created":"2015-10-23 09:20:59","Updated":"2015-10-23 09:20:59"},{"GeonameId":682945,"Name":"Comuna C\u0103line\u015fti","Latitude":"44.11002","Longitude":"25.21305","CountryCode":"RO","Population":0,"Status":200,"Created":"2015-10-23 09:20:59","Updated":"2015-10-23 09:20:59"},{"GeonameId":679420,"Name":"Comuna Dide\u015fti","Latitude":"44.22331","Longitude":"24.88878","CountryCode":"RO","Population":0,"Status":200,"Created":"2015-10-23 09:20:59","Updated":"2015-10-23 09:20:59"},{"GeonameId":679200,"Name":"Comuna Dobrote\u015fti","Latitude":"44.26466","Longitude":"24.88097","CountryCode":"RO","Population":0,"Status":200,"Created":"2015-10-23 09:20:59","Updated":"2015-10-23 09:20:59"},{"GeonameId":679026,"Name":"Comuna Dracea","Latitude":"43.87177","Longitude":"25.03182","CountryCode":"RO","Population":0,"Status":200,"Created":"2015-10-23 09:20:59","Updated":"2015-10-23 09:20:59"},{"GeonameId":8334788,"Name":"Comuna Dr\u00e3c\u015fenei","Latitude":"44.20715","Longitude":"25.0037","CountryCode":"RO","Population":0,"Status":200,"Created":"2015-10-23 09:20:59","Updated":"2015-10-23 09:20:59"},{"GeonameId":678988,"Name":"Comuna Dr\u0103g\u0103ne\u015fti de Vede","Latitude":"44.13081","Longitude":"25.0487","CountryCode":"RO","Population":0,"Status":200,"Created":"2015-10-23 09:20:59","Updated":"2015-10-23 09:20:59"},{"GeonameId":678984,"Name":"Comuna Dr\u0103g\u0103ne\u015fti-Vla\u015fca","Latitude":"44.09517","Longitude":"25.54848","CountryCode":"RO","Population":0,"Status":200,"Created":"2015-10-23 09:20:59","Updated":"2015-10-23 09:20:59"},{"GeonameId":677886,"Name":"Comuna Frumoasa","Latitude":"43.80298","Longitude":"25.46311","CountryCode":"RO","Population":0,"Status":200,"Created":"2015-10-23 09:20:59","Updated":"2015-10-23 09:20:59"},{"GeonameId":677949,"Name":"Comuna Fr\u0103sinet","Latitude":"44.18808","Longitude":"25.37818","CountryCode":"RO","Population":0,"Status":200,"Created":"2015-10-23 09:20:59","Updated":"2015-10-23 09:20:59"},{"GeonameId":677767,"Name":"Comuna Furcule\u015fti","Latitude":"43.86572","Longitude":"25.1398","CountryCode":"RO","Population":0,"Status":200,"Created":"2015-10-23 09:20:59","Updated":"2015-10-23 09:20:59"},{"GeonameId":678147,"Name":"Comuna F\u00e2nt\u00e2nele","Latitude":"43.72104","Longitude":"25.29265","CountryCode":"RO","Population":0,"Status":200,"Created":"2015-10-23 09:20:59","Updated":"2015-10-23 09:20:59"},{"GeonameId":676782,"Name":"Comuna Gratia","Latitude":"44.43382","Longitude":"25.44103","CountryCode":"RO","Population":0,"Status":200,"Created":"2015-10-23 09:20:59","Updated":"2015-10-23 09:20:59"},{"GeonameId":677699,"Name":"Comuna G\u0103l\u0103\u0163eni","Latitude":"44.22491","Longitude":"25.36466","CountryCode":"RO","Population":0,"Status":200,"Created":"2015-10-23 09:20:59","Updated":"2015-10-23 09:20:59"},{"GeonameId":677569,"Name":"Comuna G\u0103uriciu","Latitude":"43.82717","Longitude":"25.39459","CountryCode":"RO","Population":0,"Status":200,"Created":"2015-10-23 09:20:59","Updated":"2015-10-23 09:20:59"},{"GeonameId":675476,"Name":"Comuna Islaz","Latitude":"43.75179","Longitude":"24.74381","CountryCode":"RO","Population":0,"Status":200,"Created":"2015-10-23 09:20:59","Updated":"2015-10-23 09:20:59"},{"GeonameId":674720,"Name":"Comuna Lisa","Latitude":"43.7723","Longitude":"25.14919","CountryCode":"RO","Population":0,"Status":200,"Created":"2015-10-23 09:20:59","Updated":"2015-10-23 09:20:59"},{"GeonameId":674704,"Name":"Comuna Li\u0163a","Latitude":"43.79545","Longitude":"24.82157","CountryCode":"RO","Population":0,"Status":200,"Created":"2015-10-23 09:20:59","Updated":"2015-10-23 09:20:59"},{"GeonameId":8334784,"Name":"Comuna Lunca","Latitude":"43.83177","Longitude":"24.73073","CountryCode":"RO","Population":0,"Status":200,"Created":"2015-10-23 09:20:59","Updated":"2015-10-23 09:20:59"},{"GeonameId":673656,"Name":"Comuna Mavrodin","Latitude":"44.03559","Longitude":"25.24088","CountryCode":"RO","Population":0,"Status":200,"Created":"2015-10-23 09:20:59","Updated":"2015-10-23 09:20:59"},{"GeonameId":673575,"Name":"Comuna Mereni","Latitude":"44.22879","Longitude":"25.64434","CountryCode":"RO","Population":0,"Status":200,"Created":"2015-10-23 09:20:59","Updated":"2015-10-23 09:20:59"},{"GeonameId":672795,"Name":"Comuna Mo\u015fteni","Latitude":"44.19787","Longitude":"25.50854","CountryCode":"RO","Population":0,"Status":200,"Created":"2015-10-23 09:20:59","Updated":"2015-10-23 09:20:59"},{"GeonameId":8334796,"Name":"Comuna M\u00e2rz\u00e3ne\u015fti","Latitude":"43.93154","Longitude":"25.4623","CountryCode":"RO","Population":0,"Status":200,"Created":"2015-10-23 09:20:59","Updated":"2015-10-23 09:20:59"},{"GeonameId":674132,"Name":"Comuna M\u0103gura","Latitude":"44.04054","Longitude":"25.3959","CountryCode":"RO","Population":0,"Status":200,"Created":"2015-10-23 09:20:59","Updated":"2015-10-23 09:20:59"},{"GeonameId":674029,"Name":"Comuna M\u0103ld\u0103eni","Latitude":"44.12658","Longitude":"24.92327","CountryCode":"RO","Population":0,"Status":200,"Created":"2015-10-23 09:20:59","Updated":"2015-10-23 09:20:59"},{"GeonameId":672511,"Name":"Comuna Nanov","Latitude":"43.99171","Longitude":"25.28894","CountryCode":"RO","Population":0,"Status":200,"Created":"2015-10-23 09:20:59","Updated":"2015-10-23 09:20:59"},{"GeonameId":672447,"Name":"Comuna Nec\u015fe\u015fti","Latitude":"44.26085","Longitude":"25.13225","CountryCode":"RO","Population":0,"Status":200,"Created":"2015-10-23 09:20:59","Updated":"2015-10-23 09:20:59"},{"GeonameId":672311,"Name":"Comuna Nenciule\u015fti","Latitude":"44.0386","Longitude":"25.18551","CountryCode":"RO","Population":0,"Status":200,"Created":"2015-10-23 09:20:59","Updated":"2015-10-23 09:20:59"},{"GeonameId":672491,"Name":"Comuna N\u0103sturelu","Latitude":"43.66634","Longitude":"25.43856","CountryCode":"RO","Population":0,"Status":200,"Created":"2015-10-23 09:20:59","Updated":"2015-10-23 09:20:59"},{"GeonameId":671836,"Name":"Comuna Olteni","Latitude":"44.18976","Longitude":"25.278","CountryCode":"RO","Population":0,"Status":200,"Created":"2015-10-23 09:20:59","Updated":"2015-10-23 09:20:59"},{"GeonameId":671740,"Name":"Comuna Orbeasca","Latitude":"44.11606","Longitude":"25.32708","CountryCode":"RO","Population":0,"Status":200,"Created":"2015-10-23 09:20:59","Updated":"2015-10-23 09:20:59"},{"GeonameId":671141,"Name":"Comuna Peretu","Latitude":"44.04372","Longitude":"25.09285","CountryCode":"RO","Population":0,"Status":200,"Created":"2015-10-23 09:20:59","Updated":"2015-10-23 09:20:59"},{"GeonameId":670908,"Name":"Comuna Piatra","Latitude":"43.81058","Longitude":"25.16777","CountryCode":"RO","Population":0,"Status":200,"Created":"2015-10-23 09:20:59","Updated":"2015-10-23 09:20:59"},{"GeonameId":670818,"Name":"Comuna Pietro\u015fani","Latitude":"43.71364","Longitude":"25.63998","CountryCode":"RO","Population":0,"Status":200,"Created":"2015-10-23 09:20:59","Updated":"2015-10-23 09:20:59"},{"GeonameId":670445,"Name":"Comuna Plopii Sl\u0103vi\u0163e\u015fti","Latitude":"43.96098","Longitude":"24.68525","CountryCode":"RO","Population":0,"Status":200,"Created":"2015-10-23 09:20:59","Updated":"2015-10-23 09:20:59"},{"GeonameId":670406,"Name":"Comuna Plosca","Latitude":"44.02338","Longitude":"25.1492","CountryCode":"RO","Population":0,"Status":200,"Created":"2015-10-23 09:20:59","Updated":"2015-10-23 09:20:59"},{"GeonameId":669513,"Name":"Comuna Poeni","Latitude":"44.43297","Longitude":"25.33868","CountryCode":"RO","Population":0,"Status":200,"Created":"2015-10-23 09:20:59","Updated":"2015-10-23 09:20:59"},{"GeonameId":669831,"Name":"Comuna Poroschia","Latitude":"43.92887","Longitude":"25.3576","CountryCode":"RO","Population":0,"Status":200,"Created":"2015-10-23 09:20:59","Updated":"2015-10-23 09:20:59"},{"GeonameId":669483,"Name":"Comuna Purani","Latitude":"44.36509","Longitude":"25.41322","CountryCode":"RO","Population":0,"Status":200,"Created":"2015-10-23 09:20:59","Updated":"2015-10-23 09:20:59"},{"GeonameId":669442,"Name":"Comuna Putineiu","Latitude":"43.91429","Longitude":"24.96969","CountryCode":"RO","Population":0,"Status":200,"Created":"2015-10-23 09:20:59","Updated":"2015-10-23 09:20:59"},{"GeonameId":669256,"Name":"Comuna R\u00e3doie\u015fti","Latitude":"44.14377","Longitude":"25.15357","CountryCode":"RO","Population":0,"Status":200,"Created":"2015-10-23 09:20:59","Updated":"2015-10-23 09:20:59"},{"GeonameId":669153,"Name":"Comuna R\u0103smire\u015fti","Latitude":"43.99981","Longitude":"25.57118","CountryCode":"RO","Population":0,"Status":200,"Created":"2015-10-23 09:20:59","Updated":"2015-10-23 09:20:59"},{"GeonameId":668273,"Name":"Comuna Saelele","Latitude":"43.85274","Longitude":"24.73838","CountryCode":"RO","Population":0,"Status":200,"Created":"2015-10-23 09:20:59","Updated":"2015-10-23 09:20:59"},{"GeonameId":668205,"Name":"Comuna Salcia","Latitude":"43.94157","Longitude":"24.92663","CountryCode":"RO","Population":0,"Status":200,"Created":"2015-10-23 09:20:59","Updated":"2015-10-23 09:20:59"},{"GeonameId":667571,"Name":"Comuna Scrioa\u015ftea","Latitude":"44.16453","Longitude":"24.95299","CountryCode":"RO","Population":0,"Status":200,"Created":"2015-10-23 09:20:59","Updated":"2015-10-23 09:20:59"},{"GeonameId":667552,"Name":"Comuna Scurtu Mare","Latitude":"44.35259","Longitude":"25.25895","CountryCode":"RO","Population":0,"Status":200,"Created":"2015-10-23 09:20:59","Updated":"2015-10-23 09:20:59"},{"GeonameId":667538,"Name":"Comuna Seaca","Latitude":"43.74933","Longitude":"25.07423","CountryCode":"RO","Population":0,"Status":200,"Created":"2015-10-23 09:20:59","Updated":"2015-10-23 09:20:59"},{"GeonameId":667448,"Name":"Comuna Segarcea Vale","Latitude":"43.82417","Longitude":"24.81422","CountryCode":"RO","Population":0,"Status":200,"Created":"2015-10-23 09:20:59","Updated":"2015-10-23 09:20:59"},{"GeonameId":667310,"Name":"Comuna Sfin\u0163e\u015fti","Latitude":"44.18824","Longitude":"25.10389","CountryCode":"RO","Population":0,"Status":200,"Created":"2015-10-23 09:20:59","Updated":"2015-10-23 09:20:59"},{"GeonameId":667177,"Name":"Comuna Sili\u015ftea","Latitude":"44.37398","Longitude":"25.35104","CountryCode":"RO","Population":0,"Status":200,"Created":"2015-10-23 09:20:59","Updated":"2015-10-23 09:20:59"},{"GeonameId":667166,"Name":"Comuna Sili\u015ftea Nou\u0103","Latitude":"44.38028","Longitude":"25.01389","CountryCode":"RO","Population":0,"Status":200,"Created":"2015-10-23 09:20:59","Updated":"2015-10-23 09:20:59"},{"GeonameId":666664,"Name":"Comuna Slobozia-M\u00e2ndra","Latitude":"43.91576","Longitude":"24.69914","CountryCode":"RO","Population":0,"Status":200,"Created":"2015-10-23 09:20:59","Updated":"2015-10-23 09:20:59"},{"GeonameId":666618,"Name":"Comuna Sm\u00e2rdioasa","Latitude":"43.83939","Longitude":"25.4419","CountryCode":"RO","Population":0,"Status":200,"Created":"2015-10-23 09:20:59","Updated":"2015-10-23 09:20:59"},{"GeonameId":8334752,"Name":"Comuna Stejaru","Latitude":"44.17715","Longitude":"24.88208","CountryCode":"RO","Population":0,"Status":200,"Created":"2015-10-23 09:20:59","Updated":"2015-10-23 09:20:59"},{"GeonameId":666028,"Name":"Comuna Storob\u0103neasa","Latitude":"43.87974","Longitude":"25.45622","CountryCode":"RO","Population":0,"Status":200,"Created":"2015-10-23 09:20:59","Updated":"2015-10-23 09:20:59"},{"GeonameId":665812,"Name":"Comuna Suhaia","Latitude":"43.73953","Longitude":"25.25291","CountryCode":"RO","Population":0,"Status":200,"Created":"2015-10-23 09:20:59","Updated":"2015-10-23 09:20:59"},{"GeonameId":666862,"Name":"Comuna S\u00e2rbeni","Latitude":"44.46667","Longitude":"25.38333","CountryCode":"RO","Population":0,"Status":200,"Created":"2015-10-23 09:20:59","Updated":"2015-10-23 09:20:59"},{"GeonameId":668308,"Name":"Comuna S\u0103ceni","Latitude":"44.2331","Longitude":"25.06073","CountryCode":"RO","Population":0,"Status":200,"Created":"2015-10-23 09:20:59","Updated":"2015-10-23 09:20:59"},{"GeonameId":665599,"Name":"Comuna Talpa","Latitude":"44.2807","Longitude":"25.30919","CountryCode":"RO","Population":0,"Status":200,"Created":"2015-10-23 09:20:59","Updated":"2015-10-23 09:20:59"},{"GeonameId":664672,"Name":"Comuna Traian","Latitude":"43.7672","Longitude":"25.00494","CountryCode":"RO","Population":0,"Status":200,"Created":"2015-10-23 09:20:59","Updated":"2015-10-23 09:20:59"},{"GeonameId":8334855,"Name":"Comuna Trivalea-Mo\u015fteni","Latitude":"44.262","Longitude":"25.24082","CountryCode":"RO","Population":0,"Status":200,"Created":"2015-10-23 09:20:59","Updated":"2015-10-23 09:20:59"},{"GeonameId":664590,"Name":"Comuna Troianul","Latitude":"44.00415","Longitude":"25.024","CountryCode":"RO","Population":0,"Status":200,"Created":"2015-10-23 09:20:59","Updated":"2015-10-23 09:20:59"},{"GeonameId":665446,"Name":"Comuna T\u0103t\u0103r\u0103\u015ftii de Jos","Latitude":"44.3696","Longitude":"25.19385","CountryCode":"RO","Population":0,"Status":200,"Created":"2015-10-23 09:20:59","Updated":"2015-10-23 09:20:59"},{"GeonameId":665444,"Name":"Comuna T\u0103t\u0103r\u0103\u015ftii de Sus","Latitude":"44.40857","Longitude":"25.13146","CountryCode":"RO","Population":0,"Status":200,"Created":"2015-10-23 09:20:59","Updated":"2015-10-23 09:20:59"},{"GeonameId":664381,"Name":"Comuna Uda-Clocociov","Latitude":"43.88385","Longitude":"24.71908","CountryCode":"RO","Population":0,"Status":200,"Created":"2015-10-23 09:20:59","Updated":"2015-10-23 09:20:59"},{"GeonameId":663083,"Name":"Comuna Vedea","Latitude":"44.09436","Longitude":"25.07495","CountryCode":"RO","Population":0,"Status":200,"Created":"2015-10-23 09:20:59","Updated":"2015-10-23 09:20:59"},{"GeonameId":662909,"Name":"Comuna Vii\u015foara","Latitude":"43.77985","Longitude":"25.1752","CountryCode":"RO","Population":0,"Status":200,"Created":"2015-10-23 09:20:59","Updated":"2015-10-23 09:20:59"},{"GeonameId":662665,"Name":"Comuna Vit\u0103ne\u015fti","Latitude":"43.99272","Longitude":"25.45246","CountryCode":"RO","Population":0,"Status":200,"Created":"2015-10-23 09:20:59","Updated":"2015-10-23 09:20:59"},{"GeonameId":8334648,"Name":"Comuna V\u00e2rtoape","Latitude":"44.19981","Longitude":"25.19797","CountryCode":"RO","Population":0,"Status":200,"Created":"2015-10-23 09:20:59","Updated":"2015-10-23 09:20:59"},{"GeonameId":662192,"Name":"Comuna Z\u00e2mbreasca","Latitude":"44.3035","Longitude":"24.99847","CountryCode":"RO","Population":0,"Status":200,"Created":"2015-10-23 09:20:59","Updated":"2015-10-23 09:20:59"},{"GeonameId":665134,"Name":"Comuna \u0162ig\u0103ne\u015fti","Latitude":"43.90141","Longitude":"25.37804","CountryCode":"RO","Population":0,"Status":200,"Created":"2015-10-23 09:20:59","Updated":"2015-10-23 09:20:59"},{"GeonameId":8334836,"Name":"Municipiul Alexandria","Latitude":"43.96967","Longitude":"25.33272","CountryCode":"RO","Population":0,"Status":200,"Created":"2015-10-23 09:20:59","Updated":"2015-10-23 09:20:59"},{"GeonameId":8334816,"Name":"Municipiul Ro\u015fiori De Vede","Latitude":"44.11368","Longitude":"24.98722","CountryCode":"RO","Population":0,"Status":200,"Created":"2015-10-23 09:20:59","Updated":"2015-10-23 09:20:59"},{"GeonameId":8334668,"Name":"Municipiul Turnu Magurele","Latitude":"43.74646","Longitude":"24.86893","CountryCode":"RO","Population":0,"Status":200,"Created":"2015-10-23 09:20:59","Updated":"2015-10-23 09:20:59"},{"GeonameId":662975,"Name":"Ora\u015f Videle","Latitude":"44.2766","Longitude":"25.57844","CountryCode":"RO","Population":0,"Status":200,"Created":"2015-10-23 09:20:59","Updated":"2015-10-23 09:20:59"},{"GeonameId":8334942,"Name":"Ora\u015f Zimnicea","Latitude":"43.6566","Longitude":"25.36603","CountryCode":"RO","Population":0,"Status":200,"Created":"2015-10-23 09:20:59","Updated":"2015-10-23 09:20:59"}]