[{"GeonameId":686699,"Name":"Comuna Ac\u00e2\u015f","Latitude":"47.53143","Longitude":"22.74106","CountryCode":"RO","Population":0,"Status":200,"Created":"2015-10-23 09:20:57","Updated":"2015-10-23 09:20:57"},{"GeonameId":8334771,"Name":"Comuna Agri\u015f","Latitude":"47.87377","Longitude":"23.00343","CountryCode":"RO","Population":0,"Status":200,"Created":"2015-10-23 09:20:57","Updated":"2015-10-23 09:20:57"},{"GeonameId":686342,"Name":"Comuna Andrid","Latitude":"47.5172","Longitude":"22.34688","CountryCode":"RO","Population":0,"Status":200,"Created":"2015-10-23 09:20:57","Updated":"2015-10-23 09:20:57"},{"GeonameId":686292,"Name":"Comuna Apa","Latitude":"47.74934","Longitude":"23.18966","CountryCode":"RO","Population":0,"Status":200,"Created":"2015-10-23 09:20:57","Updated":"2015-10-23 09:20:57"},{"GeonameId":685120,"Name":"Comuna Beltiug","Latitude":"47.56523","Longitude":"22.85452","CountryCode":"RO","Population":0,"Status":200,"Created":"2015-10-23 09:20:57","Updated":"2015-10-23 09:20:57"},{"GeonameId":684979,"Name":"Comuna Berveni","Latitude":"47.74896","Longitude":"22.47553","CountryCode":"RO","Population":0,"Status":200,"Created":"2015-10-23 09:20:57","Updated":"2015-10-23 09:20:57"},{"GeonameId":684629,"Name":"Comuna Bixad","Latitude":"47.92031","Longitude":"23.37337","CountryCode":"RO","Population":0,"Status":200,"Created":"2015-10-23 09:20:57","Updated":"2015-10-23 09:20:57"},{"GeonameId":684405,"Name":"Comuna Bogdand","Latitude":"47.41824","Longitude":"22.92868","CountryCode":"RO","Population":0,"Status":200,"Created":"2015-10-23 09:20:57","Updated":"2015-10-23 09:20:57"},{"GeonameId":684055,"Name":"Comuna Botiz","Latitude":"47.83285","Longitude":"22.94865","CountryCode":"RO","Population":0,"Status":200,"Created":"2015-10-23 09:20:57","Updated":"2015-10-23 09:20:57"},{"GeonameId":684761,"Name":"Comuna B\u00e2rs\u0103u","Latitude":"47.59376","Longitude":"23.24257","CountryCode":"RO","Population":0,"Status":200,"Created":"2015-10-23 09:20:57","Updated":"2015-10-23 09:20:57"},{"GeonameId":685276,"Name":"Comuna B\u0103tarci","Latitude":"48.04054","Longitude":"23.14274","CountryCode":"RO","Population":0,"Status":200,"Created":"2015-10-23 09:20:57","Updated":"2015-10-23 09:20:57"},{"GeonameId":682446,"Name":"Comuna Cehal","Latitude":"47.3844","Longitude":"22.59613","CountryCode":"RO","Population":0,"Status":200,"Created":"2015-10-23 09:20:57","Updated":"2015-10-23 09:20:57"},{"GeonameId":682281,"Name":"Comuna Certeze","Latitude":"47.92014","Longitude":"23.4735","CountryCode":"RO","Population":0,"Status":200,"Created":"2015-10-23 09:20:57","Updated":"2015-10-23 09:20:57"},{"GeonameId":681426,"Name":"Comuna Ciume\u015fti","Latitude":"47.66308","Longitude":"22.33452","CountryCode":"RO","Population":0,"Status":200,"Created":"2015-10-23 09:20:57","Updated":"2015-10-23 09:20:57"},{"GeonameId":680341,"Name":"Comuna Craidorol\u0163","Latitude":"47.59793","Longitude":"22.69883","CountryCode":"RO","Population":0,"Status":200,"Created":"2015-10-23 09:20:57","Updated":"2015-10-23 09:20:57"},{"GeonameId":680072,"Name":"Comuna Cruci\u015for","Latitude":"47.65949","Longitude":"23.24776","CountryCode":"RO","Population":0,"Status":200,"Created":"2015-10-23 09:20:57","Updated":"2015-10-23 09:20:57"},{"GeonameId":679974,"Name":"Comuna Culciu","Latitude":"47.75246","Longitude":"23.05593","CountryCode":"RO","Population":0,"Status":200,"Created":"2015-10-23 09:20:57","Updated":"2015-10-23 09:20:57"},{"GeonameId":8334768,"Name":"Comuna C\u00e3line\u015fti-Oa\u015f","Latitude":"47.9034","Longitude":"23.27351","CountryCode":"RO","Population":0,"Status":200,"Created":"2015-10-23 09:20:57","Updated":"2015-10-23 09:20:57"},{"GeonameId":8334868,"Name":"Comuna C\u00e3min","Latitude":"47.72836","Longitude":"22.47987","CountryCode":"RO","Population":0,"Status":200,"Created":"2015-10-23 09:20:57","Updated":"2015-10-23 09:20:57"},{"GeonameId":682862,"Name":"Comuna C\u0103m\u0103rzana","Latitude":"47.99435","Longitude":"23.30874","CountryCode":"RO","Population":0,"Status":200,"Created":"2015-10-23 09:20:57","Updated":"2015-10-23 09:20:57"},{"GeonameId":682799,"Name":"Comuna C\u0103pleni","Latitude":"47.70942","Longitude":"22.50637","CountryCode":"RO","Population":0,"Status":200,"Created":"2015-10-23 09:20:57","Updated":"2015-10-23 09:20:57"},{"GeonameId":682521,"Name":"Comuna C\u0103ua\u015f","Latitude":"47.57998","Longitude":"22.55546","CountryCode":"RO","Population":0,"Status":200,"Created":"2015-10-23 09:20:57","Updated":"2015-10-23 09:20:57"},{"GeonameId":679291,"Name":"Comuna Doba","Latitude":"47.74588","Longitude":"22.68383","CountryCode":"RO","Population":0,"Status":200,"Created":"2015-10-23 09:20:57","Updated":"2015-10-23 09:20:57"},{"GeonameId":679060,"Name":"Comuna Dorol\u0163","Latitude":"47.84524","Longitude":"22.78642","CountryCode":"RO","Population":0,"Status":200,"Created":"2015-10-23 09:20:57","Updated":"2015-10-23 09:20:57"},{"GeonameId":678003,"Name":"Comuna Foieni","Latitude":"47.7","Longitude":"22.38333","CountryCode":"RO","Population":0,"Status":200,"Created":"2015-10-23 09:20:57","Updated":"2015-10-23 09:20:57"},{"GeonameId":677418,"Name":"Comuna Gher\u0163a Mic\u0103","Latitude":"47.93724","Longitude":"23.22169","CountryCode":"RO","Population":0,"Status":200,"Created":"2015-10-23 09:20:57","Updated":"2015-10-23 09:20:57"},{"GeonameId":676350,"Name":"Comuna Halmeu","Latitude":"47.97833","Longitude":"23.05362","CountryCode":"RO","Population":0,"Status":200,"Created":"2015-10-23 09:20:57","Updated":"2015-10-23 09:20:57"},{"GeonameId":676105,"Name":"Comuna Hodod","Latitude":"47.3987","Longitude":"23.04633","CountryCode":"RO","Population":0,"Status":200,"Created":"2015-10-23 09:20:57","Updated":"2015-10-23 09:20:57"},{"GeonameId":8334793,"Name":"Comuna Homoroade","Latitude":"47.63896","Longitude":"23.06593","CountryCode":"RO","Population":0,"Status":200,"Created":"2015-10-23 09:20:57","Updated":"2015-10-23 09:20:57"},{"GeonameId":674946,"Name":"Comuna Lazuri","Latitude":"47.89143","Longitude":"22.87213","CountryCode":"RO","Population":0,"Status":200,"Created":"2015-10-23 09:20:57","Updated":"2015-10-23 09:20:57"},{"GeonameId":673631,"Name":"Comuna Medie\u015fu Aurit","Latitude":"47.79451","Longitude":"23.1536","CountryCode":"RO","Population":0,"Status":200,"Created":"2015-10-23 09:20:57","Updated":"2015-10-23 09:20:57"},{"GeonameId":673452,"Name":"Comuna Micula","Latitude":"47.91687","Longitude":"22.93652","CountryCode":"RO","Population":0,"Status":200,"Created":"2015-10-23 09:20:57","Updated":"2015-10-23 09:20:57"},{"GeonameId":672961,"Name":"Comuna Moftinu","Latitude":"47.68333","Longitude":"22.6","CountryCode":"RO","Population":0,"Status":200,"Created":"2015-10-23 09:20:57","Updated":"2015-10-23 09:20:57"},{"GeonameId":671965,"Name":"Comuna Odoreu","Latitude":"47.79427","Longitude":"22.99639","CountryCode":"RO","Population":0,"Status":200,"Created":"2015-10-23 09:20:57","Updated":"2015-10-23 09:20:57"},{"GeonameId":671750,"Name":"Comuna Ora\u015fu Nou","Latitude":"47.8347","Longitude":"23.30211","CountryCode":"RO","Population":0,"Status":200,"Created":"2015-10-23 09:20:57","Updated":"2015-10-23 09:20:57"},{"GeonameId":670986,"Name":"Comuna Petre\u015fti","Latitude":"47.58993","Longitude":"22.35972","CountryCode":"RO","Population":0,"Status":200,"Created":"2015-10-23 09:20:57","Updated":"2015-10-23 09:20:57"},{"GeonameId":670774,"Name":"Comuna Pir","Latitude":"47.4665","Longitude":"22.3938","CountryCode":"RO","Population":0,"Status":200,"Created":"2015-10-23 09:20:57","Updated":"2015-10-23 09:20:57"},{"GeonameId":670651,"Name":"Comuna Pi\u015fcolt","Latitude":"47.59761","Longitude":"22.27498","CountryCode":"RO","Population":0,"Status":200,"Created":"2015-10-23 09:20:57","Updated":"2015-10-23 09:20:57"},{"GeonameId":669949,"Name":"Comuna Pomi","Latitude":"47.68071","Longitude":"23.32362","CountryCode":"RO","Population":0,"Status":200,"Created":"2015-10-23 09:20:57","Updated":"2015-10-23 09:20:57"},{"GeonameId":669808,"Name":"Comuna Porumbe\u015fti","Latitude":"47.98491","Longitude":"22.97236","CountryCode":"RO","Population":0,"Status":200,"Created":"2015-10-23 09:20:57","Updated":"2015-10-23 09:20:57"},{"GeonameId":8334741,"Name":"Comuna P\u00e3ule\u015fti","Latitude":"47.74992","Longitude":"22.94743","CountryCode":"RO","Population":0,"Status":200,"Created":"2015-10-23 09:20:57","Updated":"2015-10-23 09:20:57"},{"GeonameId":8334766,"Name":"Comuna Rac\u015fa","Latitude":"47.82068","Longitude":"23.33247","CountryCode":"RO","Population":0,"Status":200,"Created":"2015-10-23 09:20:57","Updated":"2015-10-23 09:20:57"},{"GeonameId":668095,"Name":"Comuna Sanisl\u0103u","Latitude":"47.63116","Longitude":"22.33109","CountryCode":"RO","Population":0,"Status":200,"Created":"2015-10-23 09:20:57","Updated":"2015-10-23 09:20:57"},{"GeonameId":668088,"Name":"Comuna Sant\u0103u","Latitude":"47.51152","Longitude":"22.47327","CountryCode":"RO","Population":0,"Status":200,"Created":"2015-10-23 09:20:57","Updated":"2015-10-23 09:20:57"},{"GeonameId":666575,"Name":"Comuna Socond","Latitude":"47.54018","Longitude":"22.98135","CountryCode":"RO","Population":0,"Status":200,"Created":"2015-10-23 09:20:57","Updated":"2015-10-23 09:20:57"},{"GeonameId":8334770,"Name":"Comuna Supur","Latitude":"47.45826","Longitude":"22.80767","CountryCode":"RO","Population":0,"Status":200,"Created":"2015-10-23 09:20:57","Updated":"2015-10-23 09:20:57"},{"GeonameId":668329,"Name":"Comuna S\u0103c\u0103\u015feni","Latitude":"47.46964","Longitude":"22.68273","CountryCode":"RO","Population":0,"Status":200,"Created":"2015-10-23 09:20:57","Updated":"2015-10-23 09:20:57"},{"GeonameId":667782,"Name":"Comuna S\u0103uca","Latitude":"47.46041","Longitude":"22.48621","CountryCode":"RO","Population":0,"Status":200,"Created":"2015-10-23 09:20:57","Updated":"2015-10-23 09:20:57"},{"GeonameId":8334774,"Name":"Comuna Tarna Mare","Latitude":"48.08356","Longitude":"23.19491","CountryCode":"RO","Population":0,"Status":200,"Created":"2015-10-23 09:20:57","Updated":"2015-10-23 09:20:57"},{"GeonameId":665236,"Name":"Comuna Terebe\u015fti","Latitude":"47.67823","Longitude":"22.74226","CountryCode":"RO","Population":0,"Status":200,"Created":"2015-10-23 09:20:57","Updated":"2015-10-23 09:20:57"},{"GeonameId":665026,"Name":"Comuna Tiream","Latitude":"47.58553","Longitude":"22.43993","CountryCode":"RO","Population":0,"Status":200,"Created":"2015-10-23 09:20:57","Updated":"2015-10-23 09:20:57"},{"GeonameId":664424,"Name":"Comuna Turulung","Latitude":"47.92351","Longitude":"23.10382","CountryCode":"RO","Population":0,"Status":200,"Created":"2015-10-23 09:20:57","Updated":"2015-10-23 09:20:57"},{"GeonameId":664431,"Name":"Comuna Tur\u0163","Latitude":"47.98018","Longitude":"23.20968","CountryCode":"RO","Population":0,"Status":200,"Created":"2015-10-23 09:20:57","Updated":"2015-10-23 09:20:57"},{"GeonameId":664939,"Name":"Comuna T\u00e2r\u015fol\u0163","Latitude":"47.95","Longitude":"23.35","CountryCode":"RO","Population":0,"Status":200,"Created":"2015-10-23 09:20:57","Updated":"2015-10-23 09:20:57"},{"GeonameId":664072,"Name":"Comuna Urziceni","Latitude":"47.73286","Longitude":"22.40181","CountryCode":"RO","Population":0,"Status":200,"Created":"2015-10-23 09:20:57","Updated":"2015-10-23 09:20:57"},{"GeonameId":663304,"Name":"Comuna Valea Vinului","Latitude":"47.69553","Longitude":"23.18488","CountryCode":"RO","Population":0,"Status":200,"Created":"2015-10-23 09:20:57","Updated":"2015-10-23 09:20:57"},{"GeonameId":663223,"Name":"Comuna Vama","Latitude":"47.84354","Longitude":"23.3966","CountryCode":"RO","Population":0,"Status":200,"Created":"2015-10-23 09:20:57","Updated":"2015-10-23 09:20:57"},{"GeonameId":663013,"Name":"Comuna Veti\u015f","Latitude":"47.79292","Longitude":"22.75623","CountryCode":"RO","Population":0,"Status":200,"Created":"2015-10-23 09:20:57","Updated":"2015-10-23 09:20:57"},{"GeonameId":662935,"Name":"Comuna Viile Satu Mare","Latitude":"47.66667","Longitude":"22.95","CountryCode":"RO","Population":0,"Status":200,"Created":"2015-10-23 09:20:57","Updated":"2015-10-23 09:20:57"},{"GeonameId":8299647,"Name":"Municipiu Carei","Latitude":"47.68203","Longitude":"22.46635","CountryCode":"RO","Population":0,"Status":200,"Created":"2015-10-23 09:20:57","Updated":"2015-10-23 09:20:57"},{"GeonameId":8334767,"Name":"Municipiul Satu Mare","Latitude":"47.76514","Longitude":"22.83565","CountryCode":"RO","Population":0,"Status":200,"Created":"2015-10-23 09:20:57","Updated":"2015-10-23 09:20:57"},{"GeonameId":672366,"Name":"Ora\u015f Negre\u015fti-Oa\u015f","Latitude":"47.86801","Longitude":"23.41816","CountryCode":"RO","Population":0,"Status":200,"Created":"2015-10-23 09:20:57","Updated":"2015-10-23 09:20:57"},{"GeonameId":686205,"Name":"Ora\u0219 Ardud","Latitude":"47.63333","Longitude":"22.88333","CountryCode":"RO","Population":0,"Status":200,"Created":"2015-10-23 09:20:57","Updated":"2015-10-23 09:20:57"},{"GeonameId":674675,"Name":"Ora\u0219 Livada","Latitude":"47.86667","Longitude":"23.13333","CountryCode":"RO","Population":0,"Status":200,"Created":"2015-10-23 09:20:57","Updated":"2015-10-23 09:20:57"},{"GeonameId":665468,"Name":"Ora\u0219 T\u0103\u015fnad","Latitude":"47.48333","Longitude":"22.58333","CountryCode":"RO","Population":0,"Status":200,"Created":"2015-10-23 09:20:57","Updated":"2015-10-23 09:20:57"}]