[{"GeonameId":686610,"Name":"Comuna Agrij","Latitude":"47.06784","Longitude":"23.09764","CountryCode":"RO","Population":0,"Status":200,"Created":"2015-10-23 09:20:57","Updated":"2015-10-23 09:20:57"},{"GeonameId":686447,"Name":"Comuna Alma\u015fu","Latitude":"46.95","Longitude":"23.13333","CountryCode":"RO","Population":0,"Status":200,"Created":"2015-10-23 09:20:57","Updated":"2015-10-23 09:20:57"},{"GeonameId":685111,"Name":"Comuna Benesat","Latitude":"47.41667","Longitude":"23.3","CountryCode":"RO","Population":0,"Status":200,"Created":"2015-10-23 09:20:57","Updated":"2015-10-23 09:20:57"},{"GeonameId":684515,"Name":"Comuna Bobota","Latitude":"47.38333","Longitude":"22.76667","CountryCode":"RO","Population":0,"Status":200,"Created":"2015-10-23 09:20:57","Updated":"2015-10-23 09:20:57"},{"GeonameId":8299635,"Name":"Comuna Boc\u015fa","Latitude":"47.30332","Longitude":"22.91241","CountryCode":"RO","Population":0,"Status":200,"Created":"2015-10-23 09:20:57","Updated":"2015-10-23 09:20:57"},{"GeonameId":684365,"Name":"Comuna Boghi\u015f","Latitude":"47.15611","Longitude":"22.72706","CountryCode":"RO","Population":0,"Status":200,"Created":"2015-10-23 09:20:57","Updated":"2015-10-23 09:20:57"},{"GeonameId":683556,"Name":"Comuna Buciumi","Latitude":"47.03476","Longitude":"23.02546","CountryCode":"RO","Population":0,"Status":200,"Created":"2015-10-23 09:20:57","Updated":"2015-10-23 09:20:57"},{"GeonameId":685976,"Name":"Comuna B\u0103beni","Latitude":"47.3","Longitude":"23.4","CountryCode":"RO","Population":0,"Status":200,"Created":"2015-10-23 09:20:57","Updated":"2015-10-23 09:20:57"},{"GeonameId":685704,"Name":"Comuna B\u0103lan","Latitude":"47.15768","Longitude":"23.31187","CountryCode":"RO","Population":0,"Status":200,"Created":"2015-10-23 09:20:57","Updated":"2015-10-23 09:20:57"},{"GeonameId":685452,"Name":"Comuna B\u0103ni\u015for","Latitude":"47.10215","Longitude":"22.83646","CountryCode":"RO","Population":0,"Status":200,"Created":"2015-10-23 09:20:57","Updated":"2015-10-23 09:20:57"},{"GeonameId":682869,"Name":"Comuna Cam\u0103r","Latitude":"47.31728","Longitude":"22.62815","CountryCode":"RO","Population":0,"Status":200,"Created":"2015-10-23 09:20:57","Updated":"2015-10-23 09:20:57"},{"GeonameId":682711,"Name":"Comuna Carastelec","Latitude":"47.32182","Longitude":"22.68686","CountryCode":"RO","Population":0,"Status":200,"Created":"2015-10-23 09:20:57","Updated":"2015-10-23 09:20:57"},{"GeonameId":682441,"Name":"Comuna Cehu Silvaniei","Latitude":"47.41293","Longitude":"23.1766","CountryCode":"RO","Population":0,"Status":200,"Created":"2015-10-23 09:20:57","Updated":"2015-10-23 09:20:57"},{"GeonameId":682135,"Name":"Comuna Chie\u015fd","Latitude":"47.36505","Longitude":"22.89296","CountryCode":"RO","Population":0,"Status":200,"Created":"2015-10-23 09:20:57","Updated":"2015-10-23 09:20:57"},{"GeonameId":681352,"Name":"Comuna Cizer","Latitude":"47.06684","Longitude":"22.88129","CountryCode":"RO","Population":0,"Status":200,"Created":"2015-10-23 09:20:57","Updated":"2015-10-23 09:20:57"},{"GeonameId":680654,"Name":"Comuna Co\u015feiu","Latitude":"47.33189","Longitude":"23.01282","CountryCode":"RO","Population":0,"Status":200,"Created":"2015-10-23 09:20:57","Updated":"2015-10-23 09:20:57"},{"GeonameId":680309,"Name":"Comuna Crasna","Latitude":"47.16191","Longitude":"22.82979","CountryCode":"RO","Population":0,"Status":200,"Created":"2015-10-23 09:20:57","Updated":"2015-10-23 09:20:57"},{"GeonameId":680297,"Name":"Comuna Creaca","Latitude":"47.1949","Longitude":"23.2276","CountryCode":"RO","Population":0,"Status":200,"Created":"2015-10-23 09:20:57","Updated":"2015-10-23 09:20:57"},{"GeonameId":680155,"Name":"Comuna Cristol\u0163","Latitude":"47.21231","Longitude":"23.43745","CountryCode":"RO","Population":0,"Status":200,"Created":"2015-10-23 09:20:57","Updated":"2015-10-23 09:20:57"},{"GeonameId":680189,"Name":"Comuna Cri\u015feni","Latitude":"47.25028","Longitude":"23.06965","CountryCode":"RO","Population":0,"Status":200,"Created":"2015-10-23 09:20:57","Updated":"2015-10-23 09:20:57"},{"GeonameId":679860,"Name":"Comuna Cuz\u0103plac","Latitude":"46.94107","Longitude":"23.22552","CountryCode":"RO","Population":0,"Status":200,"Created":"2015-10-23 09:20:57","Updated":"2015-10-23 09:20:57"},{"GeonameId":679227,"Name":"Comuna Dobrin","Latitude":"47.30812","Longitude":"23.11367","CountryCode":"RO","Population":0,"Status":200,"Created":"2015-10-23 09:20:57","Updated":"2015-10-23 09:20:57"},{"GeonameId":678893,"Name":"Comuna Dragu","Latitude":"47.03493","Longitude":"23.41089","CountryCode":"RO","Population":0,"Status":200,"Created":"2015-10-23 09:20:57","Updated":"2015-10-23 09:20:57"},{"GeonameId":8334901,"Name":"Comuna Fildu De Jos","Latitude":"46.91837","Longitude":"23.01591","CountryCode":"RO","Population":0,"Status":200,"Created":"2015-10-23 09:20:57","Updated":"2015-10-23 09:20:57"},{"GeonameId":677271,"Name":"Comuna G\u00e2lg\u0103u","Latitude":"47.27667","Longitude":"23.68763","CountryCode":"RO","Population":0,"Status":200,"Created":"2015-10-23 09:20:57","Updated":"2015-10-23 09:20:57"},{"GeonameId":677235,"Name":"Comuna G\u00e2rbou","Latitude":"47.15447","Longitude":"23.43522","CountryCode":"RO","Population":0,"Status":200,"Created":"2015-10-23 09:20:57","Updated":"2015-10-23 09:20:57"},{"GeonameId":676353,"Name":"Comuna Halm\u0103\u015fd","Latitude":"47.15903","Longitude":"22.59664","CountryCode":"RO","Population":0,"Status":200,"Created":"2015-10-23 09:20:57","Updated":"2015-10-23 09:20:57"},{"GeonameId":8334649,"Name":"Comuna Hereclean","Latitude":"47.26297","Longitude":"23.00704","CountryCode":"RO","Population":0,"Status":200,"Created":"2015-10-23 09:20:57","Updated":"2015-10-23 09:20:57"},{"GeonameId":676211,"Name":"Comuna Hida","Latitude":"47.07831","Longitude":"23.33841","CountryCode":"RO","Population":0,"Status":200,"Created":"2015-10-23 09:20:57","Updated":"2015-10-23 09:20:57"},{"GeonameId":675992,"Name":"Comuna Horoatu Crasnei","Latitude":"47.09729","Longitude":"22.92131","CountryCode":"RO","Population":0,"Status":200,"Created":"2015-10-23 09:20:57","Updated":"2015-10-23 09:20:57"},{"GeonameId":675677,"Name":"Comuna Ileanda","Latitude":"47.34501","Longitude":"23.60827","CountryCode":"RO","Population":0,"Status":200,"Created":"2015-10-23 09:20:57","Updated":"2015-10-23 09:20:57"},{"GeonameId":675513,"Name":"Comuna Ip","Latitude":"47.22138","Longitude":"22.62406","CountryCode":"RO","Population":0,"Status":200,"Created":"2015-10-23 09:20:57","Updated":"2015-10-23 09:20:57"},{"GeonameId":674836,"Name":"Comuna Letca","Latitude":"47.34948","Longitude":"23.42865","CountryCode":"RO","Population":0,"Status":200,"Created":"2015-10-23 09:20:57","Updated":"2015-10-23 09:20:57"},{"GeonameId":674579,"Name":"Comuna Lozna","Latitude":"47.3151","Longitude":"23.48507","CountryCode":"RO","Population":0,"Status":200,"Created":"2015-10-23 09:20:57","Updated":"2015-10-23 09:20:57"},{"GeonameId":673867,"Name":"Comuna Marca","Latitude":"47.23495","Longitude":"22.55089","CountryCode":"RO","Population":0,"Status":200,"Created":"2015-10-23 09:20:57","Updated":"2015-10-23 09:20:57"},{"GeonameId":673087,"Name":"Comuna Mir\u015fid","Latitude":"47.23132","Longitude":"23.14308","CountryCode":"RO","Population":0,"Status":200,"Created":"2015-10-23 09:20:57","Updated":"2015-10-23 09:20:57"},{"GeonameId":674196,"Name":"Comuna M\u0103eri\u015fte","Latitude":"47.29893","Longitude":"22.75444","CountryCode":"RO","Population":0,"Status":200,"Created":"2015-10-23 09:20:57","Updated":"2015-10-23 09:20:57"},{"GeonameId":672122,"Name":"Comuna Nu\u015ffal\u0103u","Latitude":"47.21355","Longitude":"22.70784","CountryCode":"RO","Population":0,"Status":200,"Created":"2015-10-23 09:20:57","Updated":"2015-10-23 09:20:57"},{"GeonameId":672506,"Name":"Comuna N\u0103pradea","Latitude":"47.34497","Longitude":"23.31603","CountryCode":"RO","Population":0,"Status":200,"Created":"2015-10-23 09:20:57","Updated":"2015-10-23 09:20:57"},{"GeonameId":671135,"Name":"Comuna Pericei","Latitude":"47.24643","Longitude":"22.87644","CountryCode":"RO","Population":0,"Status":200,"Created":"2015-10-23 09:20:57","Updated":"2015-10-23 09:20:57"},{"GeonameId":670440,"Name":"Comuna Plopi\u015f","Latitude":"47.11425","Longitude":"22.6424","CountryCode":"RO","Population":0,"Status":200,"Created":"2015-10-23 09:20:57","Updated":"2015-10-23 09:20:57"},{"GeonameId":670102,"Name":"Comuna Poiana Blenchii","Latitude":"47.30626","Longitude":"23.76012","CountryCode":"RO","Population":0,"Status":200,"Created":"2015-10-23 09:20:57","Updated":"2015-10-23 09:20:57"},{"GeonameId":668717,"Name":"Comuna Rom\u00e2na\u015fi","Latitude":"47.1147","Longitude":"23.17627","CountryCode":"RO","Population":0,"Status":200,"Created":"2015-10-23 09:20:57","Updated":"2015-10-23 09:20:57"},{"GeonameId":668433,"Name":"Comuna Rus","Latitude":"47.278","Longitude":"23.57813","CountryCode":"RO","Population":0,"Status":200,"Created":"2015-10-23 09:20:57","Updated":"2015-10-23 09:20:57"},{"GeonameId":666466,"Name":"Comuna Some\u015f-Odorhei","Latitude":"47.32846","Longitude":"23.22294","CountryCode":"RO","Population":0,"Status":200,"Created":"2015-10-23 09:20:57","Updated":"2015-10-23 09:20:57"},{"GeonameId":665728,"Name":"Comuna Surduc","Latitude":"47.24433","Longitude":"23.37313","CountryCode":"RO","Population":0,"Status":200,"Created":"2015-10-23 09:20:57","Updated":"2015-10-23 09:20:57"},{"GeonameId":667229,"Name":"Comuna S\u00e2g","Latitude":"47.07041","Longitude":"22.78671","CountryCode":"RO","Population":0,"Status":200,"Created":"2015-10-23 09:20:57","Updated":"2015-10-23 09:20:57"},{"GeonameId":666988,"Name":"Comuna S\u00e2nmihaiu Alma\u015fului","Latitude":"47.01667","Longitude":"23.3","CountryCode":"RO","Population":0,"Status":200,"Created":"2015-10-23 09:20:57","Updated":"2015-10-23 09:20:57"},{"GeonameId":668235,"Name":"Comuna S\u0103l\u0103\u0163ig","Latitude":"47.35417","Longitude":"23.15585","CountryCode":"RO","Population":0,"Status":200,"Created":"2015-10-23 09:20:57","Updated":"2015-10-23 09:20:57"},{"GeonameId":8334916,"Name":"Comuna Treznea","Latitude":"47.09432","Longitude":"23.10166","CountryCode":"RO","Population":0,"Status":200,"Created":"2015-10-23 09:20:57","Updated":"2015-10-23 09:20:57"},{"GeonameId":8334940,"Name":"Comuna Valc\u00e3u De Jos","Latitude":"47.1096","Longitude":"22.73662","CountryCode":"RO","Population":0,"Status":200,"Created":"2015-10-23 09:20:57","Updated":"2015-10-23 09:20:57"},{"GeonameId":662745,"Name":"Comuna V\u00e2r\u015fol\u0163","Latitude":"47.19711","Longitude":"22.94529","CountryCode":"RO","Population":0,"Status":200,"Created":"2015-10-23 09:20:57","Updated":"2015-10-23 09:20:57"},{"GeonameId":662331,"Name":"Comuna Zalha","Latitude":"47.19786","Longitude":"23.53139","CountryCode":"RO","Population":0,"Status":200,"Created":"2015-10-23 09:20:57","Updated":"2015-10-23 09:20:57"},{"GeonameId":662194,"Name":"Comuna Zimbor","Latitude":"46.98887","Longitude":"23.29029","CountryCode":"RO","Population":0,"Status":200,"Created":"2015-10-23 09:20:57","Updated":"2015-10-23 09:20:57"},{"GeonameId":668115,"Name":"Comuna \u015eam\u015fud","Latitude":"47.33234","Longitude":"22.95373","CountryCode":"RO","Population":0,"Status":200,"Created":"2015-10-23 09:20:57","Updated":"2015-10-23 09:20:57"},{"GeonameId":667102,"Name":"Comuna \u015eimi\u015fna","Latitude":"47.21179","Longitude":"23.61546","CountryCode":"RO","Population":0,"Status":200,"Created":"2015-10-23 09:20:57","Updated":"2015-10-23 09:20:57"},{"GeonameId":667969,"Name":"Comuna \u015e\u0103rm\u0103\u015fag","Latitude":"47.32345","Longitude":"22.81454","CountryCode":"RO","Population":0,"Status":200,"Created":"2015-10-23 09:20:57","Updated":"2015-10-23 09:20:57"},{"GeonameId":673532,"Name":"Comun\u0103 Mese\u015fenii de Jos","Latitude":"47.14568","Longitude":"22.99133","CountryCode":"RO","Population":0,"Status":200,"Created":"2015-10-23 09:20:57","Updated":"2015-10-23 09:20:57"},{"GeonameId":8334769,"Name":"Municipiul Zal\u00e3u","Latitude":"47.16633","Longitude":"23.0966","CountryCode":"RO","Population":0,"Status":200,"Created":"2015-10-23 09:20:57","Updated":"2015-10-23 09:20:57"},{"GeonameId":8299634,"Name":"Ora\u015f \u015eimleu Silvaniei","Latitude":"47.23018","Longitude":"22.7944","CountryCode":"RO","Population":0,"Status":200,"Created":"2015-10-23 09:20:57","Updated":"2015-10-23 09:20:57"},{"GeonameId":675260,"Name":"Ora\u0219 Jibou","Latitude":"47.26001","Longitude":"23.25488","CountryCode":"RO","Population":0,"Status":200,"Created":"2015-10-23 09:20:57","Updated":"2015-10-23 09:20:57"}]