[{"GeonameId":8334758,"Name":"Comuna Agapia","Latitude":"47.16196","Longitude":"26.29545","CountryCode":"RO","Population":0,"Status":200,"Created":"2015-10-23 09:20:59","Updated":"2015-10-23 09:20:59"},{"GeonameId":8334985,"Name":"Comuna Alexandru Cel Bun","Latitude":"46.93988","Longitude":"26.26849","CountryCode":"RO","Population":0,"Status":200,"Created":"2015-10-23 09:20:59","Updated":"2015-10-23 09:20:59"},{"GeonameId":685854,"Name":"Comuna Bahna","Latitude":"46.7786","Longitude":"26.79742","CountryCode":"RO","Population":0,"Status":200,"Created":"2015-10-23 09:20:59","Updated":"2015-10-23 09:20:59"},{"GeonameId":684914,"Name":"Comuna Bicaz Chei","Latitude":"46.83435","Longitude":"25.87234","CountryCode":"RO","Population":0,"Status":200,"Created":"2015-10-23 09:20:59","Updated":"2015-10-23 09:20:59"},{"GeonameId":684912,"Name":"Comuna Bicazu Ardelean","Latitude":"46.86884","Longitude":"25.9257","CountryCode":"RO","Population":0,"Status":200,"Created":"2015-10-23 09:20:59","Updated":"2015-10-23 09:20:59"},{"GeonameId":684457,"Name":"Comuna Bode\u015fti-Precista","Latitude":"47.03819","Longitude":"26.4379","CountryCode":"RO","Population":0,"Status":200,"Created":"2015-10-23 09:20:59","Updated":"2015-10-23 09:20:59"},{"GeonameId":684370,"Name":"Comuna Boghicea","Latitude":"47.06025","Longitude":"27.11082","CountryCode":"RO","Population":0,"Status":200,"Created":"2015-10-23 09:20:59","Updated":"2015-10-23 09:20:59"},{"GeonameId":684229,"Name":"Comuna Borca","Latitude":"47.19099","Longitude":"25.7814","CountryCode":"RO","Population":0,"Status":200,"Created":"2015-10-23 09:20:59","Updated":"2015-10-23 09:20:59"},{"GeonameId":684188,"Name":"Comuna Borle\u015fti","Latitude":"46.78934","Longitude":"26.4908","CountryCode":"RO","Population":0,"Status":200,"Created":"2015-10-23 09:20:59","Updated":"2015-10-23 09:20:59"},{"GeonameId":684063,"Name":"Comuna Bote\u015fti","Latitude":"47.06415","Longitude":"26.75969","CountryCode":"RO","Population":0,"Status":200,"Created":"2015-10-23 09:20:59","Updated":"2015-10-23 09:20:59"},{"GeonameId":683998,"Name":"Comuna Bozieni","Latitude":"46.84446","Longitude":"27.15282","CountryCode":"RO","Population":0,"Status":200,"Created":"2015-10-23 09:20:59","Updated":"2015-10-23 09:20:59"},{"GeonameId":683608,"Name":"Comuna Brusturi-Dr\u0103g\u0103ne\u015fti","Latitude":"47.29579","Longitude":"26.35443","CountryCode":"RO","Population":0,"Status":200,"Created":"2015-10-23 09:20:59","Updated":"2015-10-23 09:20:59"},{"GeonameId":684833,"Name":"Comuna B\u00e2ra","Latitude":"47.01319","Longitude":"27.04016","CountryCode":"RO","Population":0,"Status":200,"Created":"2015-10-23 09:20:59","Updated":"2015-10-23 09:20:59"},{"GeonameId":685336,"Name":"Comuna B\u00e2rg\u00e3uani","Latitude":"46.97877","Longitude":"26.64589","CountryCode":"RO","Population":0,"Status":200,"Created":"2015-10-23 09:20:59","Updated":"2015-10-23 09:20:59"},{"GeonameId":685550,"Name":"Comuna B\u0103l\u0163\u0103te\u015fti","Latitude":"47.13076","Longitude":"26.30187","CountryCode":"RO","Population":0,"Status":200,"Created":"2015-10-23 09:20:59","Updated":"2015-10-23 09:20:59"},{"GeonameId":682482,"Name":"Comuna Ceahl\u0103u","Latitude":"47.04488","Longitude":"25.95955","CountryCode":"RO","Population":0,"Status":200,"Created":"2015-10-23 09:20:59","Updated":"2015-10-23 09:20:59"},{"GeonameId":680829,"Name":"Comuna Cordun","Latitude":"46.9729","Longitude":"26.86265","CountryCode":"RO","Population":0,"Status":200,"Created":"2015-10-23 09:20:59","Updated":"2015-10-23 09:20:59"},{"GeonameId":680539,"Name":"Comuna Costi\u015fa","Latitude":"46.75818","Longitude":"26.64623","CountryCode":"RO","Population":0,"Status":200,"Created":"2015-10-23 09:20:59","Updated":"2015-10-23 09:20:59"},{"GeonameId":680381,"Name":"Comuna Cr\u0103c\u0103oani","Latitude":"47.09597","Longitude":"26.25865","CountryCode":"RO","Population":0,"Status":200,"Created":"2015-10-23 09:20:59","Updated":"2015-10-23 09:20:59"},{"GeonameId":681812,"Name":"Comuna C\u00e2nde\u015fti","Latitude":"46.71667","Longitude":"26.58333","CountryCode":"RO","Population":0,"Status":200,"Created":"2015-10-23 09:20:59","Updated":"2015-10-23 09:20:59"},{"GeonameId":679256,"Name":"Comuna Dobreni","Latitude":"46.99482","Longitude":"26.40941","CountryCode":"RO","Population":0,"Status":200,"Created":"2015-10-23 09:20:59","Updated":"2015-10-23 09:20:59"},{"GeonameId":679181,"Name":"Comuna Dochia","Latitude":"46.9174","Longitude":"26.58485","CountryCode":"RO","Population":0,"Status":200,"Created":"2015-10-23 09:20:59","Updated":"2015-10-23 09:20:59"},{"GeonameId":679132,"Name":"Comuna Dolje\u015fti","Latitude":"47.02806","Longitude":"26.97557","CountryCode":"RO","Population":0,"Status":200,"Created":"2015-10-23 09:20:59","Updated":"2015-10-23 09:20:59"},{"GeonameId":678918,"Name":"Comuna Dragomire\u015fti","Latitude":"47.02798","Longitude":"26.57536","CountryCode":"RO","Population":0,"Status":200,"Created":"2015-10-23 09:20:59","Updated":"2015-10-23 09:20:59"},{"GeonameId":678990,"Name":"Comuna Dr\u0103g\u0103ne\u015fti","Latitude":"47.31204","Longitude":"26.4155","CountryCode":"RO","Population":0,"Status":200,"Created":"2015-10-23 09:20:59","Updated":"2015-10-23 09:20:59"},{"GeonameId":678765,"Name":"Comuna Dulce\u015fti","Latitude":"46.98346","Longitude":"26.78062","CountryCode":"RO","Population":0,"Status":200,"Created":"2015-10-23 09:20:59","Updated":"2015-10-23 09:20:59"},{"GeonameId":678714,"Name":"Comuna Dumbrava Ro\u015fie","Latitude":"46.88535","Longitude":"26.44117","CountryCode":"RO","Population":0,"Status":200,"Created":"2015-10-23 09:20:59","Updated":"2015-10-23 09:20:59"},{"GeonameId":679777,"Name":"Comuna D\u0103muc","Latitude":"46.75621","Longitude":"25.89219","CountryCode":"RO","Population":0,"Status":200,"Created":"2015-10-23 09:20:59","Updated":"2015-10-23 09:20:59"},{"GeonameId":8334685,"Name":"Comuna F\u00e3urei","Latitude":"46.91528","Longitude":"26.71834","CountryCode":"RO","Population":0,"Status":200,"Created":"2015-10-23 09:20:59","Updated":"2015-10-23 09:20:59"},{"GeonameId":678436,"Name":"Comuna F\u0103rca\u015fa","Latitude":"47.15272","Longitude":"25.8488","CountryCode":"RO","Population":0,"Status":200,"Created":"2015-10-23 09:20:59","Updated":"2015-10-23 09:20:59"},{"GeonameId":677453,"Name":"Comuna Gher\u0103e\u015fti","Latitude":"47.0362","Longitude":"26.82009","CountryCode":"RO","Population":0,"Status":200,"Created":"2015-10-23 09:20:59","Updated":"2015-10-23 09:20:59"},{"GeonameId":677361,"Name":"Comuna Ghind\u0103oani","Latitude":"47.10983","Longitude":"26.33909","CountryCode":"RO","Population":0,"Status":200,"Created":"2015-10-23 09:20:59","Updated":"2015-10-23 09:20:59"},{"GeonameId":677157,"Name":"Comuna Girov","Latitude":"46.94918","Longitude":"26.48244","CountryCode":"RO","Population":0,"Status":200,"Created":"2015-10-23 09:20:59","Updated":"2015-10-23 09:20:59"},{"GeonameId":8334760,"Name":"Comuna Grin\u0163ie\u015f","Latitude":"47.02472","Longitude":"25.87636","CountryCode":"RO","Population":0,"Status":200,"Created":"2015-10-23 09:20:59","Updated":"2015-10-23 09:20:59"},{"GeonameId":676603,"Name":"Comuna Grum\u0103ze\u015fti","Latitude":"47.14727","Longitude":"26.38641","CountryCode":"RO","Population":0,"Status":200,"Created":"2015-10-23 09:20:59","Updated":"2015-10-23 09:20:59"},{"GeonameId":677289,"Name":"Comuna G\u00e2din\u0163i","Latitude":"46.93708","Longitude":"27.00588","CountryCode":"RO","Population":0,"Status":200,"Created":"2015-10-23 09:20:59","Updated":"2015-10-23 09:20:59"},{"GeonameId":677208,"Name":"Comuna G\u00e2rcina","Latitude":"46.99222","Longitude":"26.3282","CountryCode":"RO","Population":0,"Status":200,"Created":"2015-10-23 09:20:59","Updated":"2015-10-23 09:20:59"},{"GeonameId":676330,"Name":"Comuna Hangu","Latitude":"47.03525","Longitude":"26.064","CountryCode":"RO","Population":0,"Status":200,"Created":"2015-10-23 09:20:59","Updated":"2015-10-23 09:20:59"},{"GeonameId":8334924,"Name":"Comuna Horia","Latitude":"46.90639","Longitude":"26.93891","CountryCode":"RO","Population":0,"Status":200,"Created":"2015-10-23 09:20:59","Updated":"2015-10-23 09:20:59"},{"GeonameId":675751,"Name":"Comuna Icuse\u015fti","Latitude":"46.79894","Longitude":"26.99076","CountryCode":"RO","Population":0,"Status":200,"Created":"2015-10-23 09:20:59","Updated":"2015-10-23 09:20:59"},{"GeonameId":675554,"Name":"Comuna Ion Creang\u0103","Latitude":"46.86069","Longitude":"27.00358","CountryCode":"RO","Population":0,"Status":200,"Created":"2015-10-23 09:20:59","Updated":"2015-10-23 09:20:59"},{"GeonameId":8334986,"Name":"Comuna Moldoveni","Latitude":"46.82131","Longitude":"26.78791","CountryCode":"RO","Population":0,"Status":200,"Created":"2015-10-23 09:20:59","Updated":"2015-10-23 09:20:59"},{"GeonameId":673787,"Name":"Comuna M\u0103rgineni","Latitude":"46.89237","Longitude":"26.65742","CountryCode":"RO","Population":0,"Status":200,"Created":"2015-10-23 09:20:59","Updated":"2015-10-23 09:20:59"},{"GeonameId":672367,"Name":"Comuna Negre\u015fti","Latitude":"47.04779","Longitude":"26.35005","CountryCode":"RO","Population":0,"Status":200,"Created":"2015-10-23 09:20:59","Updated":"2015-10-23 09:20:59"},{"GeonameId":671798,"Name":"Comuna Oniceni","Latitude":"46.78926","Longitude":"27.16336","CountryCode":"RO","Population":0,"Status":200,"Created":"2015-10-23 09:20:59","Updated":"2015-10-23 09:20:59"},{"GeonameId":670978,"Name":"Comuna Petricani","Latitude":"47.15304","Longitude":"26.44114","CountryCode":"RO","Population":0,"Status":200,"Created":"2015-10-23 09:20:59","Updated":"2015-10-23 09:20:59"},{"GeonameId":670883,"Name":"Comuna Piatra \u015eoimului","Latitude":"46.82443","Longitude":"26.41848","CountryCode":"RO","Population":0,"Status":200,"Created":"2015-10-23 09:20:59","Updated":"2015-10-23 09:20:59"},{"GeonameId":670776,"Name":"Comuna Pipirig","Latitude":"47.228","Longitude":"26.08483","CountryCode":"RO","Population":0,"Status":200,"Created":"2015-10-23 09:20:59","Updated":"2015-10-23 09:20:59"},{"GeonameId":670318,"Name":"Comuna Podoleni","Latitude":"46.81772","Longitude":"26.6328","CountryCode":"RO","Population":0,"Status":200,"Created":"2015-10-23 09:20:59","Updated":"2015-10-23 09:20:59"},{"GeonameId":670020,"Name":"Comuna Poiana Teiului","Latitude":"47.11403","Longitude":"25.92517","CountryCode":"RO","Population":0,"Status":200,"Created":"2015-10-23 09:20:59","Updated":"2015-10-23 09:20:59"},{"GeonameId":670233,"Name":"Comuna Poienari","Latitude":"46.88625","Longitude":"27.11966","CountryCode":"RO","Population":0,"Status":200,"Created":"2015-10-23 09:20:59","Updated":"2015-10-23 09:20:59"},{"GeonameId":670796,"Name":"Comuna P\u00e2nce\u015fti","Latitude":"46.9017","Longitude":"27.16879","CountryCode":"RO","Population":0,"Status":200,"Created":"2015-10-23 09:20:59","Updated":"2015-10-23 09:20:59"},{"GeonameId":670790,"Name":"Comuna P\u00e2ng\u0103ra\u0163i","Latitude":"46.93333","Longitude":"26.15","CountryCode":"RO","Population":0,"Status":200,"Created":"2015-10-23 09:20:59","Updated":"2015-10-23 09:20:59"},{"GeonameId":671280,"Name":"Comuna P\u0103str\u0103veni","Latitude":"47.1594","Longitude":"26.57615","CountryCode":"RO","Population":0,"Status":200,"Created":"2015-10-23 09:20:59","Updated":"2015-10-23 09:20:59"},{"GeonameId":669005,"Name":"Comuna Rediu","Latitude":"46.75","Longitude":"26.56667","CountryCode":"RO","Population":0,"Status":200,"Created":"2015-10-23 09:20:59","Updated":"2015-10-23 09:20:59"},{"GeonameId":668697,"Name":"Comuna Rom\u00e2ni","Latitude":"46.80242","Longitude":"26.69945","CountryCode":"RO","Population":0,"Status":200,"Created":"2015-10-23 09:20:59","Updated":"2015-10-23 09:20:59"},{"GeonameId":8334838,"Name":"Comuna Ruginoasa","Latitude":"46.97447","Longitude":"26.70674","CountryCode":"RO","Population":0,"Status":200,"Created":"2015-10-23 09:20:59","Updated":"2015-10-23 09:20:59"},{"GeonameId":669086,"Name":"Comuna R\u00e3zboieni","Latitude":"47.07424","Longitude":"26.5615","CountryCode":"RO","Population":0,"Status":200,"Created":"2015-10-23 09:20:59","Updated":"2015-10-23 09:20:59"},{"GeonameId":669101,"Name":"Comuna R\u0103uce\u015fti","Latitude":"47.26151","Longitude":"26.4117","CountryCode":"RO","Population":0,"Status":200,"Created":"2015-10-23 09:20:59","Updated":"2015-10-23 09:20:59"},{"GeonameId":668262,"Name":"Comuna Sagna","Latitude":"46.96806","Longitude":"27.0167","CountryCode":"RO","Population":0,"Status":200,"Created":"2015-10-23 09:20:59","Updated":"2015-10-23 09:20:59"},{"GeonameId":667469,"Name":"Comuna Secuieni","Latitude":"46.86853","Longitude":"26.81062","CountryCode":"RO","Population":0,"Status":200,"Created":"2015-10-23 09:20:59","Updated":"2015-10-23 09:20:59"},{"GeonameId":666275,"Name":"Comuna St\u0103ni\u0163a","Latitude":"47.01216","Longitude":"27.13704","CountryCode":"RO","Population":0,"Status":200,"Created":"2015-10-23 09:20:59","Updated":"2015-10-23 09:20:59"},{"GeonameId":668364,"Name":"Comuna S\u0103b\u0103oani","Latitude":"47.00187","Longitude":"26.88525","CountryCode":"RO","Population":0,"Status":200,"Created":"2015-10-23 09:20:59","Updated":"2015-10-23 09:20:59"},{"GeonameId":667749,"Name":"Comuna S\u0103vine\u015fti","Latitude":"46.86469","Longitude":"26.484","CountryCode":"RO","Population":0,"Status":200,"Created":"2015-10-23 09:20:59","Updated":"2015-10-23 09:20:59"},{"GeonameId":665519,"Name":"Comuna Tarc\u0103u","Latitude":"46.82269","Longitude":"26.16264","CountryCode":"RO","Population":0,"Status":200,"Created":"2015-10-23 09:20:59","Updated":"2015-10-23 09:20:59"},{"GeonameId":665375,"Name":"Comuna Tazl\u0103u","Latitude":"46.72098","Longitude":"26.47003","CountryCode":"RO","Population":0,"Status":200,"Created":"2015-10-23 09:20:59","Updated":"2015-10-23 09:20:59"},{"GeonameId":665470,"Name":"Comuna Ta\u015fca","Latitude":"46.88991","Longitude":"26.01069","CountryCode":"RO","Population":0,"Status":200,"Created":"2015-10-23 09:20:59","Updated":"2015-10-23 09:20:59"},{"GeonameId":665088,"Name":"Comuna Timi\u015fe\u015fti","Latitude":"47.22939","Longitude":"26.51982","CountryCode":"RO","Population":0,"Status":200,"Created":"2015-10-23 09:20:59","Updated":"2015-10-23 09:20:59"},{"GeonameId":664608,"Name":"Comuna Trife\u015fti","Latitude":"46.90906","Longitude":"26.83311","CountryCode":"RO","Population":0,"Status":200,"Created":"2015-10-23 09:20:59","Updated":"2015-10-23 09:20:59"},{"GeonameId":664486,"Name":"Comuna Tupila\u0163i","Latitude":"47.08147","Longitude":"26.64158","CountryCode":"RO","Population":0,"Status":200,"Created":"2015-10-23 09:20:59","Updated":"2015-10-23 09:20:59"},{"GeonameId":665566,"Name":"Comuna T\u0103m\u0103\u015feni","Latitude":"47.00327","Longitude":"26.95087","CountryCode":"RO","Population":0,"Status":200,"Created":"2015-10-23 09:20:59","Updated":"2015-10-23 09:20:59"},{"GeonameId":664174,"Name":"Comuna Urecheni","Latitude":"47.17764","Longitude":"26.53424","CountryCode":"RO","Population":0,"Status":200,"Created":"2015-10-23 09:20:59","Updated":"2015-10-23 09:20:59"},{"GeonameId":663327,"Name":"Comuna Valea Ursului","Latitude":"46.79452","Longitude":"27.08166","CountryCode":"RO","Population":0,"Status":200,"Created":"2015-10-23 09:20:59","Updated":"2015-10-23 09:20:59"},{"GeonameId":662821,"Name":"Comuna V\u00e2n\u0103tori Neam\u0163","Latitude":"47.23534","Longitude":"26.277","CountryCode":"RO","Population":0,"Status":200,"Created":"2015-10-23 09:20:59","Updated":"2015-10-23 09:20:59"},{"GeonameId":663263,"Name":"Comuna V\u0103leni","Latitude":"47.02964","Longitude":"26.71532","CountryCode":"RO","Population":0,"Status":200,"Created":"2015-10-23 09:20:59","Updated":"2015-10-23 09:20:59"},{"GeonameId":662314,"Name":"Comuna Z\u0103ne\u015fti","Latitude":"46.82573","Longitude":"26.56213","CountryCode":"RO","Population":0,"Status":200,"Created":"2015-10-23 09:20:59","Updated":"2015-10-23 09:20:59"},{"GeonameId":666243,"Name":"Comuna \u015etefan cel Mare","Latitude":"46.98599","Longitude":"26.51293","CountryCode":"RO","Population":0,"Status":200,"Created":"2015-10-23 09:20:59","Updated":"2015-10-23 09:20:59"},{"GeonameId":665181,"Name":"Comuna \u0162ibucani","Latitude":"47.11856","Longitude":"26.5735","CountryCode":"RO","Population":0,"Status":200,"Created":"2015-10-23 09:20:59","Updated":"2015-10-23 09:20:59"},{"GeonameId":8334714,"Name":"Municipiul Piatra-Neam\u0163","Latitude":"46.92336","Longitude":"26.3738","CountryCode":"RO","Population":0,"Status":200,"Created":"2015-10-23 09:20:59","Updated":"2015-10-23 09:20:59"},{"GeonameId":8334755,"Name":"Municipiul Roman","Latitude":"46.92973","Longitude":"26.93678","CountryCode":"RO","Population":0,"Status":200,"Created":"2015-10-23 09:20:59","Updated":"2015-10-23 09:20:59"},{"GeonameId":684921,"Name":"Ora\u015f Bicaz","Latitude":"46.9489","Longitude":"26.07982","CountryCode":"RO","Population":0,"Status":200,"Created":"2015-10-23 09:20:59","Updated":"2015-10-23 09:20:59"},{"GeonameId":668545,"Name":"Ora\u015f Roznov","Latitude":"46.8385","Longitude":"26.51277","CountryCode":"RO","Population":0,"Status":200,"Created":"2015-10-23 09:20:59","Updated":"2015-10-23 09:20:59"},{"GeonameId":8334756,"Name":"Ora\u015f T\u00e2rgu Neam\u0163","Latitude":"47.19698","Longitude":"26.36414","CountryCode":"RO","Population":0,"Status":200,"Created":"2015-10-23 09:20:59","Updated":"2015-10-23 09:20:59"}]