[{"GeonameId":686202,"Name":"Comuna Ardusat","Latitude":"47.63241","Longitude":"23.39156","CountryCode":"RO","Population":0,"Status":200,"Created":"2015-10-23 09:20:53","Updated":"2015-10-23 09:20:53"},{"GeonameId":686156,"Name":"Comuna Arini\u015f","Latitude":"47.50757","Longitude":"23.22435","CountryCode":"RO","Population":0,"Status":200,"Created":"2015-10-23 09:20:53","Updated":"2015-10-23 09:20:53"},{"GeonameId":686073,"Name":"Comuna Asuaju de Sus","Latitude":"47.55","Longitude":"23.2","CountryCode":"RO","Population":0,"Status":200,"Created":"2015-10-23 09:20:53","Updated":"2015-10-23 09:20:53"},{"GeonameId":684920,"Name":"Comuna Bicaz","Latitude":"47.46241","Longitude":"23.01474","CountryCode":"RO","Population":0,"Status":200,"Created":"2015-10-23 09:20:53","Updated":"2015-10-23 09:20:53"},{"GeonameId":684672,"Name":"Comuna Bistra","Latitude":"47.8686","Longitude":"24.19291","CountryCode":"RO","Population":0,"Status":200,"Created":"2015-10-23 09:20:53","Updated":"2015-10-23 09:20:53"},{"GeonameId":684495,"Name":"Comuna Bocicoiu Mare","Latitude":"47.96667","Longitude":"24","CountryCode":"RO","Population":0,"Status":200,"Created":"2015-10-23 09:20:53","Updated":"2015-10-23 09:20:53"},{"GeonameId":679992,"Name":"Comuna Bogdan Vod\u0103","Latitude":"47.6948","Longitude":"24.29548","CountryCode":"RO","Population":0,"Status":200,"Created":"2015-10-23 09:20:53","Updated":"2015-10-23 09:20:53"},{"GeonameId":684307,"Name":"Comuna Boiu Mare","Latitude":"47.40202","Longitude":"23.59965","CountryCode":"RO","Population":0,"Status":200,"Created":"2015-10-23 09:20:53","Updated":"2015-10-23 09:20:53"},{"GeonameId":684053,"Name":"Comuna Botiza","Latitude":"47.66818","Longitude":"24.15035","CountryCode":"RO","Population":0,"Status":200,"Created":"2015-10-23 09:20:53","Updated":"2015-10-23 09:20:53"},{"GeonameId":683428,"Name":"Comuna Bude\u015fti","Latitude":"47.74615","Longitude":"23.94569","CountryCode":"RO","Population":0,"Status":200,"Created":"2015-10-23 09:20:53","Updated":"2015-10-23 09:20:53"},{"GeonameId":684768,"Name":"Comuna B\u00e2rsana","Latitude":"47.815","Longitude":"24.05731","CountryCode":"RO","Population":0,"Status":200,"Created":"2015-10-23 09:20:53","Updated":"2015-10-23 09:20:53"},{"GeonameId":685758,"Name":"Comuna B\u0103iu\u0163","Latitude":"47.60191","Longitude":"24.0018","CountryCode":"RO","Population":0,"Status":200,"Created":"2015-10-23 09:20:53","Updated":"2015-10-23 09:20:53"},{"GeonameId":685763,"Name":"Comuna B\u0103i\u0163a de sub Codru","Latitude":"47.53333","Longitude":"23.15","CountryCode":"RO","Population":0,"Status":200,"Created":"2015-10-23 09:20:53","Updated":"2015-10-23 09:20:53"},{"GeonameId":685295,"Name":"Comuna B\u0103se\u015fti","Latitude":"47.49608","Longitude":"23.10786","CountryCode":"RO","Population":0,"Status":200,"Created":"2015-10-23 09:20:53","Updated":"2015-10-23 09:20:53"},{"GeonameId":682310,"Name":"Comuna Cerne\u015fti","Latitude":"47.53576","Longitude":"23.78366","CountryCode":"RO","Population":0,"Status":200,"Created":"2015-10-23 09:20:53","Updated":"2015-10-23 09:20:53"},{"GeonameId":681941,"Name":"Comuna Cic\u00e2rl\u0103u","Latitude":"47.70582","Longitude":"23.38142","CountryCode":"RO","Population":0,"Status":200,"Created":"2015-10-23 09:20:53","Updated":"2015-10-23 09:20:53"},{"GeonameId":681277,"Name":"Comuna Coa\u015f","Latitude":"47.51282","Longitude":"23.60046","CountryCode":"RO","Population":0,"Status":200,"Created":"2015-10-23 09:20:53","Updated":"2015-10-23 09:20:53"},{"GeonameId":8334813,"Name":"Comuna Colt\u00e3u","Latitude":"47.60118","Longitude":"23.5345","CountryCode":"RO","Population":0,"Status":200,"Created":"2015-10-23 09:20:53","Updated":"2015-10-23 09:20:53"},{"GeonameId":680906,"Name":"Comuna Copalnic M\u0103n\u0103\u015ftur","Latitude":"47.5225","Longitude":"23.68782","CountryCode":"RO","Population":0,"Status":200,"Created":"2015-10-23 09:20:53","Updated":"2015-10-23 09:20:53"},{"GeonameId":680700,"Name":"Comuna Coroieni","Latitude":"47.36635","Longitude":"23.77764","CountryCode":"RO","Population":0,"Status":200,"Created":"2015-10-23 09:20:53","Updated":"2015-10-23 09:20:53"},{"GeonameId":679950,"Name":"Comuna Cup\u015feni","Latitude":"47.53255","Longitude":"23.94243","CountryCode":"RO","Population":0,"Status":200,"Created":"2015-10-23 09:20:53","Updated":"2015-10-23 09:20:53"},{"GeonameId":681846,"Name":"Comuna C\u00e2mpulung la Tisa","Latitude":"47.98651","Longitude":"23.77263","CountryCode":"RO","Population":0,"Status":200,"Created":"2015-10-23 09:20:53","Updated":"2015-10-23 09:20:53"},{"GeonameId":682942,"Name":"Comuna C\u0103line\u015fti","Latitude":"47.78502","Longitude":"23.97011","CountryCode":"RO","Population":0,"Status":200,"Created":"2015-10-23 09:20:53","Updated":"2015-10-23 09:20:53"},{"GeonameId":679460,"Name":"Comuna Dese\u015fti","Latitude":"47.77004","Longitude":"23.859","CountryCode":"RO","Population":0,"Status":200,"Created":"2015-10-23 09:20:53","Updated":"2015-10-23 09:20:53"},{"GeonameId":678675,"Name":"Comuna Dumbr\u0103vi\u0163a","Latitude":"47.60118","Longitude":"23.65726","CountryCode":"RO","Population":0,"Status":200,"Created":"2015-10-23 09:20:53","Updated":"2015-10-23 09:20:53"},{"GeonameId":678435,"Name":"Comuna F\u0103rca\u015fa","Latitude":"47.59482","Longitude":"23.34826","CountryCode":"RO","Population":0,"Status":200,"Created":"2015-10-23 09:20:53","Updated":"2015-10-23 09:20:53"},{"GeonameId":677140,"Name":"Comuna Giule\u015fti","Latitude":"47.82215","Longitude":"23.92994","CountryCode":"RO","Population":0,"Status":200,"Created":"2015-10-23 09:20:53","Updated":"2015-10-23 09:20:53"},{"GeonameId":676649,"Name":"Comuna Gro\u015fi","Latitude":"47.61193","Longitude":"23.58661","CountryCode":"RO","Population":0,"Status":200,"Created":"2015-10-23 09:20:53","Updated":"2015-10-23 09:20:53"},{"GeonameId":676650,"Name":"Comuna Gro\u015fii \u0162ible\u015fului","Latitude":"47.48983","Longitude":"24.06368","CountryCode":"RO","Population":0,"Status":200,"Created":"2015-10-23 09:20:53","Updated":"2015-10-23 09:20:53"},{"GeonameId":8334809,"Name":"Comuna G\u00e2rdani","Latitude":"47.55135","Longitude":"23.3088","CountryCode":"RO","Population":0,"Status":200,"Created":"2015-10-23 09:20:53","Updated":"2015-10-23 09:20:53"},{"GeonameId":675720,"Name":"Comuna Ieud","Latitude":"47.67739","Longitude":"24.23378","CountryCode":"RO","Population":0,"Status":200,"Created":"2015-10-23 09:20:53","Updated":"2015-10-23 09:20:53"},{"GeonameId":674879,"Name":"Comuna Leordina","Latitude":"47.78306","Longitude":"24.26401","CountryCode":"RO","Population":0,"Status":200,"Created":"2015-10-23 09:20:53","Updated":"2015-10-23 09:20:53"},{"GeonameId":675044,"Name":"Comuna L\u0103pu\u015f","Latitude":"47.49363","Longitude":"24.00646","CountryCode":"RO","Population":0,"Status":200,"Created":"2015-10-23 09:20:53","Updated":"2015-10-23 09:20:53"},{"GeonameId":673122,"Name":"Comuna Mire\u015fu Mare","Latitude":"47.50011","Longitude":"23.3642","CountryCode":"RO","Population":0,"Status":200,"Created":"2015-10-23 09:20:53","Updated":"2015-10-23 09:20:53"},{"GeonameId":672921,"Name":"Comuna Moisei","Latitude":"47.65612","Longitude":"24.53988","CountryCode":"RO","Population":0,"Status":200,"Created":"2015-10-23 09:20:53","Updated":"2015-10-23 09:20:53"},{"GeonameId":672106,"Name":"Comuna Oar\u0163a De Jos","Latitude":"47.45","Longitude":"23.1","CountryCode":"RO","Population":0,"Status":200,"Created":"2015-10-23 09:20:53","Updated":"2015-10-23 09:20:53"},{"GeonameId":672020,"Name":"Comuna Ocna \u015eugatag","Latitude":"47.77493","Longitude":"23.91268","CountryCode":"RO","Population":0,"Status":200,"Created":"2015-10-23 09:20:53","Updated":"2015-10-23 09:20:53"},{"GeonameId":671809,"Name":"Comuna Once\u015fti","Latitude":"47.84814","Longitude":"23.98183","CountryCode":"RO","Population":0,"Status":200,"Created":"2015-10-23 09:20:53","Updated":"2015-10-23 09:20:53"},{"GeonameId":670933,"Name":"Comuna Petrova","Latitude":"47.83003","Longitude":"24.21603","CountryCode":"RO","Population":0,"Status":200,"Created":"2015-10-23 09:20:53","Updated":"2015-10-23 09:20:53"},{"GeonameId":8334998,"Name":"Comuna Poienile Izei","Latitude":"47.70309","Longitude":"24.11276","CountryCode":"RO","Population":0,"Status":200,"Created":"2015-10-23 09:20:53","Updated":"2015-10-23 09:20:53"},{"GeonameId":669994,"Name":"Comuna Poienile de sub Munte","Latitude":"47.82371","Longitude":"24.43674","CountryCode":"RO","Population":0,"Status":200,"Created":"2015-10-23 09:20:53","Updated":"2015-10-23 09:20:53"},{"GeonameId":669039,"Name":"Comuna Recea","Latitude":"47.63108","Longitude":"23.4861","CountryCode":"RO","Population":0,"Status":200,"Created":"2015-10-23 09:20:53","Updated":"2015-10-23 09:20:53"},{"GeonameId":668982,"Name":"Comuna Remetea Chioarului","Latitude":"47.52129","Longitude":"23.52891","CountryCode":"RO","Population":0,"Status":200,"Created":"2015-10-23 09:20:53","Updated":"2015-10-23 09:20:53"},{"GeonameId":668970,"Name":"Comuna Reme\u0163i","Latitude":"47.9963","Longitude":"23.58741","CountryCode":"RO","Population":0,"Status":200,"Created":"2015-10-23 09:20:53","Updated":"2015-10-23 09:20:53"},{"GeonameId":668961,"Name":"Comuna Repedea","Latitude":"47.83212","Longitude":"24.40142","CountryCode":"RO","Population":0,"Status":200,"Created":"2015-10-23 09:20:53","Updated":"2015-10-23 09:20:53"},{"GeonameId":668682,"Name":"Comuna Rona de Jos","Latitude":"47.91667","Longitude":"24.01667","CountryCode":"RO","Population":0,"Status":200,"Created":"2015-10-23 09:20:53","Updated":"2015-10-23 09:20:53"},{"GeonameId":668680,"Name":"Comuna Rona de Sus","Latitude":"47.90184","Longitude":"24.03877","CountryCode":"RO","Population":0,"Status":200,"Created":"2015-10-23 09:20:53","Updated":"2015-10-23 09:20:53"},{"GeonameId":668547,"Name":"Comuna Rozavlea","Latitude":"47.73791","Longitude":"24.20116","CountryCode":"RO","Population":0,"Status":200,"Created":"2015-10-23 09:20:53","Updated":"2015-10-23 09:20:53"},{"GeonameId":668409,"Name":"Comuna Ru\u015fcova","Latitude":"47.79289","Longitude":"24.28546","CountryCode":"RO","Population":0,"Status":200,"Created":"2015-10-23 09:20:53","Updated":"2015-10-23 09:20:53"},{"GeonameId":667880,"Name":"Comuna Satulung","Latitude":"47.57189","Longitude":"23.41978","CountryCode":"RO","Population":0,"Status":200,"Created":"2015-10-23 09:20:53","Updated":"2015-10-23 09:20:53"},{"GeonameId":665944,"Name":"Comuna Str\u00e2mtura","Latitude":"47.75156","Longitude":"24.10267","CountryCode":"RO","Population":0,"Status":200,"Created":"2015-10-23 09:20:53","Updated":"2015-10-23 09:20:53"},{"GeonameId":665841,"Name":"Comuna Suciu de Sus","Latitude":"47.44309","Longitude":"24.04303","CountryCode":"RO","Population":0,"Status":200,"Created":"2015-10-23 09:20:53","Updated":"2015-10-23 09:20:53"},{"GeonameId":668074,"Name":"Comuna S\u00e3p\u00e2n\u0163a","Latitude":"47.96933","Longitude":"23.69818","CountryCode":"RO","Population":0,"Status":200,"Created":"2015-10-23 09:20:53","Updated":"2015-10-23 09:20:53"},{"GeonameId":668317,"Name":"Comuna S\u0103cel","Latitude":"47.6369","Longitude":"24.43508","CountryCode":"RO","Population":0,"Status":200,"Created":"2015-10-23 09:20:53","Updated":"2015-10-23 09:20:53"},{"GeonameId":668343,"Name":"Comuna S\u0103c\u0103l\u0103\u015feni","Latitude":"47.57041","Longitude":"23.57207","CountryCode":"RO","Population":0,"Status":200,"Created":"2015-10-23 09:20:53","Updated":"2015-10-23 09:20:53"},{"GeonameId":668127,"Name":"Comuna S\u0103lsig","Latitude":"47.51934","Longitude":"23.3027","CountryCode":"RO","Population":0,"Status":200,"Created":"2015-10-23 09:20:53","Updated":"2015-10-23 09:20:53"},{"GeonameId":668055,"Name":"Comuna S\u0103r\u0103s\u0103u","Latitude":"47.95","Longitude":"23.81667","CountryCode":"RO","Population":0,"Status":200,"Created":"2015-10-23 09:20:53","Updated":"2015-10-23 09:20:53"},{"GeonameId":664026,"Name":"Comuna Vadu Izei","Latitude":"47.88131","Longitude":"23.96081","CountryCode":"RO","Population":0,"Status":200,"Created":"2015-10-23 09:20:53","Updated":"2015-10-23 09:20:53"},{"GeonameId":663839,"Name":"Comuna Valea Chioarului","Latitude":"47.40706","Longitude":"23.46101","CountryCode":"RO","Population":0,"Status":200,"Created":"2015-10-23 09:20:53","Updated":"2015-10-23 09:20:53"},{"GeonameId":8334737,"Name":"Comuna Vima Mic\u00e3","Latitude":"47.41766","Longitude":"23.68841","CountryCode":"RO","Population":0,"Status":200,"Created":"2015-10-23 09:20:53","Updated":"2015-10-23 09:20:53"},{"GeonameId":662701,"Name":"Comuna Vi\u015feu de Jos","Latitude":"47.7276","Longitude":"24.36306","CountryCode":"RO","Population":0,"Status":200,"Created":"2015-10-23 09:20:53","Updated":"2015-10-23 09:20:53"},{"GeonameId":8334661,"Name":"Comuna \u015eieu","Latitude":"47.72462","Longitude":"24.22389","CountryCode":"RO","Population":0,"Status":200,"Created":"2015-10-23 09:20:53","Updated":"2015-10-23 09:20:53"},{"GeonameId":666798,"Name":"Comuna \u015ei\u015fe\u015fti","Latitude":"47.61329","Longitude":"23.74104","CountryCode":"RO","Population":0,"Status":200,"Created":"2015-10-23 09:20:53","Updated":"2015-10-23 09:20:53"},{"GeonameId":8334980,"Name":"Municipiul Baia Mare","Latitude":"47.74048","Longitude":"23.60337","CountryCode":"RO","Population":0,"Status":200,"Created":"2015-10-23 09:20:53","Updated":"2015-10-23 09:20:53"},{"GeonameId":8334962,"Name":"Municipiul Sighetu Marma\u0163iei","Latitude":"47.91914","Longitude":"23.88679","CountryCode":"RO","Population":0,"Status":200,"Created":"2015-10-23 09:20:53","Updated":"2015-10-23 09:20:53"},{"GeonameId":8334748,"Name":"Ora\u015f Baia Sprie","Latitude":"47.66446","Longitude":"23.6697","CountryCode":"RO","Population":0,"Status":200,"Created":"2015-10-23 09:20:53","Updated":"2015-10-23 09:20:53"},{"GeonameId":684152,"Name":"Ora\u015f Bor\u015fa","Latitude":"47.66965","Longitude":"24.68846","CountryCode":"RO","Population":0,"Status":200,"Created":"2015-10-23 09:20:53","Updated":"2015-10-23 09:20:53"},{"GeonameId":664307,"Name":"Ora\u015f Ulmeni","Latitude":"47.46209","Longitude":"23.27925","CountryCode":"RO","Population":0,"Status":200,"Created":"2015-10-23 09:20:53","Updated":"2015-10-23 09:20:53"},{"GeonameId":8334765,"Name":"Ora\u015f Vi\u015feu De Sus","Latitude":"47.71493","Longitude":"24.41707","CountryCode":"RO","Population":0,"Status":200,"Created":"2015-10-23 09:20:53","Updated":"2015-10-23 09:20:53"},{"GeonameId":682507,"Name":"Ora\u0219 Cavnic","Latitude":"47.64989","Longitude":"23.82547","CountryCode":"RO","Population":0,"Status":200,"Created":"2015-10-23 09:20:53","Updated":"2015-10-23 09:20:53"},{"GeonameId":678917,"Name":"Ora\u0219 Dragomire\u015fti","Latitude":"47.6686","Longitude":"24.29542","CountryCode":"RO","Population":0,"Status":200,"Created":"2015-10-23 09:20:53","Updated":"2015-10-23 09:20:53"},{"GeonameId":667436,"Name":"Ora\u0219 Seini","Latitude":"47.75","Longitude":"23.28333","CountryCode":"RO","Population":0,"Status":200,"Created":"2015-10-23 09:20:53","Updated":"2015-10-23 09:20:53"},{"GeonameId":668141,"Name":"Ora\u0219 S\u0103li\u015ftea de Sus","Latitude":"47.66019","Longitude":"24.35336","CountryCode":"RO","Population":0,"Status":200,"Created":"2015-10-23 09:20:53","Updated":"2015-10-23 09:20:53"},{"GeonameId":665008,"Name":"Ora\u0219 T\u00e2rgu L\u0103pu\u015f","Latitude":"47.46124","Longitude":"23.85353","CountryCode":"RO","Population":0,"Status":200,"Created":"2015-10-23 09:20:53","Updated":"2015-10-23 09:20:53"},{"GeonameId":665381,"Name":"Ora\u0219 T\u0103u\u0163ii-M\u0103gher\u0103u\u015f","Latitude":"47.65","Longitude":"23.48333","CountryCode":"RO","Population":0,"Status":200,"Created":"2015-10-23 09:20:53","Updated":"2015-10-23 09:20:53"},{"GeonameId":666474,"Name":"Ora\u0219 \u015eomcuta Mare","Latitude":"47.51667","Longitude":"23.46667","CountryCode":"RO","Population":0,"Status":200,"Created":"2015-10-23 09:20:53","Updated":"2015-10-23 09:20:53"}]