[{"GeonameId":8334753,"Name":"Comuna Alexandru I. Cuza","Latitude":"47.14424","Longitude":"26.85449","CountryCode":"RO","Population":0,"Status":200,"Created":"2015-10-23 09:20:56","Updated":"2015-10-23 09:20:56"},{"GeonameId":686340,"Name":"Comuna Andrie\u015feni","Latitude":"47.51112","Longitude":"27.29502","CountryCode":"RO","Population":0,"Status":200,"Created":"2015-10-23 09:20:56","Updated":"2015-10-23 09:20:56"},{"GeonameId":686130,"Name":"Comuna Aroneanu","Latitude":"47.21584","Longitude":"27.60632","CountryCode":"RO","Population":0,"Status":200,"Created":"2015-10-23 09:20:56","Updated":"2015-10-23 09:20:56"},{"GeonameId":685584,"Name":"Comuna Bal\u015f","Latitude":"47.29219","Longitude":"26.96028","CountryCode":"RO","Population":0,"Status":200,"Created":"2015-10-23 09:20:56","Updated":"2015-10-23 09:20:56"},{"GeonameId":685162,"Name":"Comuna Belce\u015fti","Latitude":"47.30581","Longitude":"27.08747","CountryCode":"RO","Population":0,"Status":200,"Created":"2015-10-23 09:20:56","Updated":"2015-10-23 09:20:56"},{"GeonameId":684633,"Name":"Comuna Bivolari","Latitude":"47.52988","Longitude":"27.42726","CountryCode":"RO","Population":0,"Status":200,"Created":"2015-10-23 09:20:56","Updated":"2015-10-23 09:20:56"},{"GeonameId":683917,"Name":"Comuna Br\u0103e\u015fti","Latitude":"47.16318","Longitude":"27.09031","CountryCode":"RO","Population":0,"Status":200,"Created":"2015-10-23 09:20:56","Updated":"2015-10-23 09:20:56"},{"GeonameId":683165,"Name":"Comuna Butea","Latitude":"47.08386","Longitude":"26.93552","CountryCode":"RO","Population":0,"Status":200,"Created":"2015-10-23 09:20:56","Updated":"2015-10-23 09:20:56"},{"GeonameId":684776,"Name":"Comuna B\u00e2rnova","Latitude":"47.08669","Longitude":"27.62635","CountryCode":"RO","Population":0,"Status":200,"Created":"2015-10-23 09:20:56","Updated":"2015-10-23 09:20:56"},{"GeonameId":685543,"Name":"Comuna B\u0103l\u0163a\u0163i","Latitude":"47.23366","Longitude":"27.11866","CountryCode":"RO","Population":0,"Status":200,"Created":"2015-10-23 09:20:56","Updated":"2015-10-23 09:20:56"},{"GeonameId":682406,"Name":"Comuna Cepleni\u0163a","Latitude":"47.37581","Longitude":"26.92597","CountryCode":"RO","Population":0,"Status":200,"Created":"2015-10-23 09:20:56","Updated":"2015-10-23 09:20:56"},{"GeonameId":8334904,"Name":"Comuna Ciohor\u00e3ni","Latitude":"47.1352","Longitude":"26.68955","CountryCode":"RO","Population":0,"Status":200,"Created":"2015-10-23 09:20:56","Updated":"2015-10-23 09:20:56"},{"GeonameId":681633,"Name":"Comuna Ciorte\u015fti","Latitude":"46.91766","Longitude":"27.84749","CountryCode":"RO","Population":0,"Status":200,"Created":"2015-10-23 09:20:56","Updated":"2015-10-23 09:20:56"},{"GeonameId":681383,"Name":"Comuna Ciurea","Latitude":"47.0615","Longitude":"27.57572","CountryCode":"RO","Population":0,"Status":200,"Created":"2015-10-23 09:20:56","Updated":"2015-10-23 09:20:56"},{"GeonameId":681279,"Name":"Comuna Coarnele Caprei","Latitude":"47.40195","Longitude":"27.09699","CountryCode":"RO","Population":0,"Status":200,"Created":"2015-10-23 09:20:56","Updated":"2015-10-23 09:20:56"},{"GeonameId":8334919,"Name":"Comuna Comarna","Latitude":"47.07004","Longitude":"27.78668","CountryCode":"RO","Population":0,"Status":200,"Created":"2015-10-23 09:20:56","Updated":"2015-10-23 09:20:56"},{"GeonameId":680563,"Name":"Comuna Coste\u015fti","Latitude":"47.24224","Longitude":"26.91751","CountryCode":"RO","Population":0,"Status":200,"Created":"2015-10-23 09:20:56","Updated":"2015-10-23 09:20:56"},{"GeonameId":680530,"Name":"Comuna Costuleni","Latitude":"47.01055","Longitude":"27.85829","CountryCode":"RO","Population":0,"Status":200,"Created":"2015-10-23 09:20:56","Updated":"2015-10-23 09:20:56"},{"GeonameId":680490,"Name":"Comuna Cotnari","Latitude":"47.35813","Longitude":"26.91687","CountryCode":"RO","Population":0,"Status":200,"Created":"2015-10-23 09:20:56","Updated":"2015-10-23 09:20:56"},{"GeonameId":680387,"Name":"Comuna Cozme\u015fti","Latitude":"46.86032","Longitude":"28.01297","CountryCode":"RO","Population":0,"Status":200,"Created":"2015-10-23 09:20:56","Updated":"2015-10-23 09:20:56"},{"GeonameId":680173,"Name":"Comuna Criste\u015fti","Latitude":"47.27821","Longitude":"26.58525","CountryCode":"RO","Population":0,"Status":200,"Created":"2015-10-23 09:20:56","Updated":"2015-10-23 09:20:56"},{"GeonameId":8334730,"Name":"Comuna Cucuteni","Latitude":"47.27587","Longitude":"26.92807","CountryCode":"RO","Population":0,"Status":200,"Created":"2015-10-23 09:20:56","Updated":"2015-10-23 09:20:56"},{"GeonameId":679823,"Name":"Comuna Dag\u00e2\u0163a","Latitude":"46.94469","Longitude":"27.19147","CountryCode":"RO","Population":0,"Status":200,"Created":"2015-10-23 09:20:56","Updated":"2015-10-23 09:20:56"},{"GeonameId":679511,"Name":"Comuna Deleni","Latitude":"47.47458","Longitude":"26.89451","CountryCode":"RO","Population":0,"Status":200,"Created":"2015-10-23 09:20:56","Updated":"2015-10-23 09:20:56"},{"GeonameId":679196,"Name":"Comuna Dobrov\u0103\u0163","Latitude":"46.96335","Longitude":"27.72245","CountryCode":"RO","Population":0,"Status":200,"Created":"2015-10-23 09:20:56","Updated":"2015-10-23 09:20:56"},{"GeonameId":679140,"Name":"Comuna Dolhe\u015fti","Latitude":"46.86958","Longitude":"27.90652","CountryCode":"RO","Population":0,"Status":200,"Created":"2015-10-23 09:20:56","Updated":"2015-10-23 09:20:56"},{"GeonameId":678878,"Name":"Comuna Dr\u0103gu\u015feni","Latitude":"46.89432","Longitude":"27.49491","CountryCode":"RO","Population":0,"Status":200,"Created":"2015-10-23 09:20:56","Updated":"2015-10-23 09:20:56"},{"GeonameId":678663,"Name":"Comuna Dume\u015fti","Latitude":"47.17668","Longitude":"27.3347","CountryCode":"RO","Population":0,"Status":200,"Created":"2015-10-23 09:20:56","Updated":"2015-10-23 09:20:56"},{"GeonameId":678551,"Name":"Comuna Erbiceni","Latitude":"47.25219","Longitude":"27.24756","CountryCode":"RO","Population":0,"Status":200,"Created":"2015-10-23 09:20:56","Updated":"2015-10-23 09:20:56"},{"GeonameId":678012,"Name":"Comuna Focuri","Latitude":"47.35113","Longitude":"27.202","CountryCode":"RO","Population":0,"Status":200,"Created":"2015-10-23 09:20:56","Updated":"2015-10-23 09:20:56"},{"GeonameId":678142,"Name":"Comuna F\u00e2nt\u00e2nele","Latitude":"47.41498","Longitude":"27.18066","CountryCode":"RO","Population":0,"Status":200,"Created":"2015-10-23 09:20:56","Updated":"2015-10-23 09:20:56"},{"GeonameId":676959,"Name":"Comuna Gol\u00e3ie\u015fti","Latitude":"47.26355","Longitude":"27.69515","CountryCode":"RO","Population":0,"Status":200,"Created":"2015-10-23 09:20:56","Updated":"2015-10-23 09:20:56"},{"GeonameId":676919,"Name":"Comuna Gorban","Latitude":"46.90059","Longitude":"28.07017","CountryCode":"RO","Population":0,"Status":200,"Created":"2015-10-23 09:20:56","Updated":"2015-10-23 09:20:56"},{"GeonameId":676797,"Name":"Comuna Grajduri","Latitude":"46.97069","Longitude":"27.55569","CountryCode":"RO","Population":0,"Status":200,"Created":"2015-10-23 09:20:56","Updated":"2015-10-23 09:20:56"},{"GeonameId":676672,"Name":"Comuna Gropni\u0163a","Latitude":"47.36874","Longitude":"27.26376","CountryCode":"RO","Population":0,"Status":200,"Created":"2015-10-23 09:20:56","Updated":"2015-10-23 09:20:56"},{"GeonameId":676631,"Name":"Comuna Groze\u015fti","Latitude":"47.01001","Longitude":"28.02507","CountryCode":"RO","Population":0,"Status":200,"Created":"2015-10-23 09:20:56","Updated":"2015-10-23 09:20:56"},{"GeonameId":676255,"Name":"Comuna Hele\u015fteni","Latitude":"47.19295","Longitude":"26.8806","CountryCode":"RO","Population":0,"Status":200,"Created":"2015-10-23 09:20:56","Updated":"2015-10-23 09:20:56"},{"GeonameId":676077,"Name":"Comuna Holboca","Latitude":"47.17512","Longitude":"27.68235","CountryCode":"RO","Population":0,"Status":200,"Created":"2015-10-23 09:20:56","Updated":"2015-10-23 09:20:56"},{"GeonameId":675996,"Name":"Comuna Horle\u015fti","Latitude":"47.11718","Longitude":"27.40856","CountryCode":"RO","Population":0,"Status":200,"Created":"2015-10-23 09:20:56","Updated":"2015-10-23 09:20:56"},{"GeonameId":676370,"Name":"Comuna H\u0103l\u0103uce\u015fti","Latitude":"47.10593","Longitude":"26.80967","CountryCode":"RO","Population":0,"Status":200,"Created":"2015-10-23 09:20:56","Updated":"2015-10-23 09:20:56"},{"GeonameId":676301,"Name":"Comuna H\u0103rm\u0103ne\u015fti","Latitude":"47.27087","Longitude":"26.81322","CountryCode":"RO","Population":0,"Status":200,"Created":"2015-10-23 09:20:56","Updated":"2015-10-23 09:20:56"},{"GeonameId":8334893,"Name":"Comuna Ion Neculce","Latitude":"47.20159","Longitude":"27.03221","CountryCode":"RO","Population":0,"Status":200,"Created":"2015-10-23 09:20:56","Updated":"2015-10-23 09:20:56"},{"GeonameId":675511,"Name":"Comuna Ipatele","Latitude":"46.9039","Longitude":"27.43762","CountryCode":"RO","Population":0,"Status":200,"Created":"2015-10-23 09:20:56","Updated":"2015-10-23 09:20:56"},{"GeonameId":674843,"Name":"Comuna Lespezi","Latitude":"47.34957","Longitude":"26.68807","CountryCode":"RO","Population":0,"Status":200,"Created":"2015-10-23 09:20:56","Updated":"2015-10-23 09:20:56"},{"GeonameId":674833,"Name":"Comuna Le\u0163cani","Latitude":"47.18012","Longitude":"27.41296","CountryCode":"RO","Population":0,"Status":200,"Created":"2015-10-23 09:20:56","Updated":"2015-10-23 09:20:56"},{"GeonameId":674322,"Name":"Comuna Lungani","Latitude":"47.17564","Longitude":"27.15749","CountryCode":"RO","Population":0,"Status":200,"Created":"2015-10-23 09:20:56","Updated":"2015-10-23 09:20:56"},{"GeonameId":673137,"Name":"Comuna Mirce\u015fti","Latitude":"47.05486","Longitude":"26.83945","CountryCode":"RO","Population":0,"Status":200,"Created":"2015-10-23 09:20:56","Updated":"2015-10-23 09:20:56"},{"GeonameId":673105,"Name":"Comuna Mironeasa","Latitude":"46.99869","Longitude":"27.42519","CountryCode":"RO","Population":0,"Status":200,"Created":"2015-10-23 09:20:56","Updated":"2015-10-23 09:20:56"},{"GeonameId":8334963,"Name":"Comuna Miroslava","Latitude":"47.13047","Longitude":"27.51039","CountryCode":"RO","Population":0,"Status":200,"Created":"2015-10-23 09:20:56","Updated":"2015-10-23 09:20:56"},{"GeonameId":673095,"Name":"Comuna Miroslove\u015fti","Latitude":"47.13966","Longitude":"26.64648","CountryCode":"RO","Population":0,"Status":200,"Created":"2015-10-23 09:20:56","Updated":"2015-10-23 09:20:56"},{"GeonameId":672940,"Name":"Comuna Mogo\u015fe\u015fti","Latitude":"47.042","Longitude":"27.48492","CountryCode":"RO","Population":0,"Status":200,"Created":"2015-10-23 09:20:56","Updated":"2015-10-23 09:20:56"},{"GeonameId":8334710,"Name":"Comuna Mogo\u015fe\u015fti-Siret","Latitude":"47.1319","Longitude":"26.77101","CountryCode":"RO","Population":0,"Status":200,"Created":"2015-10-23 09:20:56","Updated":"2015-10-23 09:20:56"},{"GeonameId":672725,"Name":"Comuna Movileni","Latitude":"47.32032","Longitude":"27.38016","CountryCode":"RO","Population":0,"Status":200,"Created":"2015-10-23 09:20:56","Updated":"2015-10-23 09:20:56"},{"GeonameId":672821,"Name":"Comuna Mo\u015fna","Latitude":"46.92189","Longitude":"27.95956","CountryCode":"RO","Population":0,"Status":200,"Created":"2015-10-23 09:20:56","Updated":"2015-10-23 09:20:56"},{"GeonameId":672780,"Name":"Comuna Mo\u0163ca","Latitude":"47.22407","Longitude":"26.61632","CountryCode":"RO","Population":0,"Status":200,"Created":"2015-10-23 09:20:56","Updated":"2015-10-23 09:20:56"},{"GeonameId":674204,"Name":"Comuna M\u0103d\u00e2rjac","Latitude":"47.04094","Longitude":"27.27716","CountryCode":"RO","Population":0,"Status":200,"Created":"2015-10-23 09:20:56","Updated":"2015-10-23 09:20:56"},{"GeonameId":671606,"Name":"Comuna O\u0163eleni","Latitude":"47.08566","Longitude":"27.0273","CountryCode":"RO","Population":0,"Status":200,"Created":"2015-10-23 09:20:56","Updated":"2015-10-23 09:20:56"},{"GeonameId":670389,"Name":"Comuna Plugari","Latitude":"47.47732","Longitude":"27.11577","CountryCode":"RO","Population":0,"Status":200,"Created":"2015-10-23 09:20:56","Updated":"2015-10-23 09:20:56"},{"GeonameId":669876,"Name":"Comuna Pope\u015fti","Latitude":"47.13704","Longitude":"27.26169","CountryCode":"RO","Population":0,"Status":200,"Created":"2015-10-23 09:20:56","Updated":"2015-10-23 09:20:56"},{"GeonameId":669846,"Name":"Comuna Popricani","Latitude":"47.2675","Longitude":"27.52729","CountryCode":"RO","Population":0,"Status":200,"Created":"2015-10-23 09:20:56","Updated":"2015-10-23 09:20:56"},{"GeonameId":669616,"Name":"Comuna Pris\u0103cani","Latitude":"47.07015","Longitude":"27.90795","CountryCode":"RO","Population":0,"Status":200,"Created":"2015-10-23 09:20:56","Updated":"2015-10-23 09:20:56"},{"GeonameId":669585,"Name":"Comuna Probota","Latitude":"47.38792","Longitude":"27.49446","CountryCode":"RO","Population":0,"Status":200,"Created":"2015-10-23 09:20:56","Updated":"2015-10-23 09:20:56"},{"GeonameId":669001,"Name":"Comuna Rediu-T\u0103tar","Latitude":"47.23169","Longitude":"27.48747","CountryCode":"RO","Population":0,"Status":200,"Created":"2015-10-23 09:20:56","Updated":"2015-10-23 09:20:56"},{"GeonameId":668700,"Name":"Comuna Rom\u00e2ne\u015fti","Latitude":"47.27171","Longitude":"27.35819","CountryCode":"RO","Population":0,"Status":200,"Created":"2015-10-23 09:20:56","Updated":"2015-10-23 09:20:56"},{"GeonameId":668668,"Name":"Comuna Ro\u015fcani","Latitude":"47.44259","Longitude":"27.41778","CountryCode":"RO","Population":0,"Status":200,"Created":"2015-10-23 09:20:56","Updated":"2015-10-23 09:20:56"},{"GeonameId":668486,"Name":"Comuna Ruginoasa","Latitude":"47.25259","Longitude":"26.85589","CountryCode":"RO","Population":0,"Status":200,"Created":"2015-10-23 09:20:56","Updated":"2015-10-23 09:20:56"},{"GeonameId":669372,"Name":"Comuna R\u0103chi\u0163eni","Latitude":"47.05163","Longitude":"26.90504","CountryCode":"RO","Population":0,"Status":200,"Created":"2015-10-23 09:20:56","Updated":"2015-10-23 09:20:56"},{"GeonameId":669240,"Name":"Comuna R\u0103duc\u0103neni","Latitude":"46.95541","Longitude":"27.97344","CountryCode":"RO","Population":0,"Status":200,"Created":"2015-10-23 09:20:56","Updated":"2015-10-23 09:20:56"},{"GeonameId":667704,"Name":"Comuna Scheia","Latitude":"46.9395","Longitude":"27.49765","CountryCode":"RO","Population":0,"Status":200,"Created":"2015-10-23 09:20:56","Updated":"2015-10-23 09:20:56"},{"GeonameId":667652,"Name":"Comuna Schitu-Duca","Latitude":"47.00255","Longitude":"27.76703","CountryCode":"RO","Population":0,"Status":200,"Created":"2015-10-23 09:20:56","Updated":"2015-10-23 09:20:56"},{"GeonameId":667605,"Name":"Comuna Scobin\u0163i","Latitude":"47.40529","Longitude":"26.8985","CountryCode":"RO","Population":0,"Status":200,"Created":"2015-10-23 09:20:56","Updated":"2015-10-23 09:20:56"},{"GeonameId":667618,"Name":"Comuna Sc\u00e2nteia","Latitude":"46.92408","Longitude":"27.58855","CountryCode":"RO","Population":0,"Status":200,"Created":"2015-10-23 09:20:56","Updated":"2015-10-23 09:20:56"},{"GeonameId":667041,"Name":"Comuna Sine\u015fti","Latitude":"47.12117","Longitude":"27.18745","CountryCode":"RO","Population":0,"Status":200,"Created":"2015-10-23 09:20:56","Updated":"2015-10-23 09:20:56"},{"GeonameId":666827,"Name":"Comuna Sire\u0163el","Latitude":"47.4184","Longitude":"26.73381","CountryCode":"RO","Population":0,"Status":200,"Created":"2015-10-23 09:20:56","Updated":"2015-10-23 09:20:56"},{"GeonameId":666036,"Name":"Comuna Stolniceni-Pr\u0103jescu","Latitude":"47.18563","Longitude":"26.73525","CountryCode":"RO","Population":0,"Status":200,"Created":"2015-10-23 09:20:56","Updated":"2015-10-23 09:20:56"},{"GeonameId":665913,"Name":"Comuna Strunga","Latitude":"47.16021","Longitude":"26.944","CountryCode":"RO","Population":0,"Status":200,"Created":"2015-10-23 09:20:56","Updated":"2015-10-23 09:20:56"},{"GeonameId":665534,"Name":"Comuna Tansa","Latitude":"46.90812","Longitude":"27.24808","CountryCode":"RO","Population":0,"Status":200,"Created":"2015-10-23 09:20:56","Updated":"2015-10-23 09:20:56"},{"GeonameId":8334945,"Name":"Comuna Todire\u015fti","Latitude":"47.32137","Longitude":"26.87743","CountryCode":"RO","Population":0,"Status":200,"Created":"2015-10-23 09:20:56","Updated":"2015-10-23 09:20:56"},{"GeonameId":664815,"Name":"Comuna Tome\u015fti","Latitude":"47.11704","Longitude":"27.70476","CountryCode":"RO","Population":0,"Status":200,"Created":"2015-10-23 09:20:56","Updated":"2015-10-23 09:20:56"},{"GeonameId":664607,"Name":"Comuna Trife\u015fti","Latitude":"47.44992","Longitude":"27.53175","CountryCode":"RO","Population":0,"Status":200,"Created":"2015-10-23 09:20:56","Updated":"2015-10-23 09:20:56"},{"GeonameId":665424,"Name":"Comuna T\u0103t\u0103ru\u015fi","Latitude":"47.34254","Longitude":"26.5859","CountryCode":"RO","Population":0,"Status":200,"Created":"2015-10-23 09:20:56","Updated":"2015-10-23 09:20:56"},{"GeonameId":8334798,"Name":"Comuna Ungheni","Latitude":"47.20176","Longitude":"27.74664","CountryCode":"RO","Population":0,"Status":200,"Created":"2015-10-23 09:20:56","Updated":"2015-10-23 09:20:56"},{"GeonameId":8334762,"Name":"Comuna Valea Lupului","Latitude":"47.1792","Longitude":"27.49965","CountryCode":"RO","Population":0,"Status":200,"Created":"2015-10-23 09:20:56","Updated":"2015-10-23 09:20:56"},{"GeonameId":663410,"Name":"Comuna Valea Seac\u0103","Latitude":"47.2884","Longitude":"26.66455","CountryCode":"RO","Population":0,"Status":200,"Created":"2015-10-23 09:20:56","Updated":"2015-10-23 09:20:56"},{"GeonameId":8334907,"Name":"Comuna Victoria","Latitude":"47.30749","Longitude":"27.6017","CountryCode":"RO","Population":0,"Status":200,"Created":"2015-10-23 09:20:56","Updated":"2015-10-23 09:20:56"},{"GeonameId":662628,"Name":"Comuna Vl\u0103deni","Latitude":"47.43756","Longitude":"27.3356","CountryCode":"RO","Population":0,"Status":200,"Created":"2015-10-23 09:20:56","Updated":"2015-10-23 09:20:56"},{"GeonameId":662514,"Name":"Comuna Voine\u015fti","Latitude":"47.07509","Longitude":"27.42151","CountryCode":"RO","Population":0,"Status":200,"Created":"2015-10-23 09:20:56","Updated":"2015-10-23 09:20:56"},{"GeonameId":662828,"Name":"Comuna V\u00e2n\u00e3tori","Latitude":"47.33379","Longitude":"26.76404","CountryCode":"RO","Population":0,"Status":200,"Created":"2015-10-23 09:20:56","Updated":"2015-10-23 09:20:56"},{"GeonameId":666875,"Name":"Comuna \u015eipote","Latitude":"47.46038","Longitude":"27.22592","CountryCode":"RO","Population":0,"Status":200,"Created":"2015-10-23 09:20:56","Updated":"2015-10-23 09:20:56"},{"GeonameId":665195,"Name":"Comuna \u0162ibana","Latitude":"46.98685","Longitude":"27.32607","CountryCode":"RO","Population":0,"Status":200,"Created":"2015-10-23 09:20:56","Updated":"2015-10-23 09:20:56"},{"GeonameId":665191,"Name":"Comuna \u0162ib\u0103ne\u015fti","Latitude":"46.91757","Longitude":"27.33547","CountryCode":"RO","Population":0,"Status":200,"Created":"2015-10-23 09:20:56","Updated":"2015-10-23 09:20:56"},{"GeonameId":665144,"Name":"Comuna \u0162ig\u0103na\u015fi","Latitude":"47.34867","Longitude":"27.45588","CountryCode":"RO","Population":0,"Status":200,"Created":"2015-10-23 09:20:56","Updated":"2015-10-23 09:20:56"},{"GeonameId":664405,"Name":"Comuna \u0162u\u0163ora","Latitude":"47.12578","Longitude":"27.79866","CountryCode":"RO","Population":0,"Status":200,"Created":"2015-10-23 09:20:56","Updated":"2015-10-23 09:20:56"},{"GeonameId":8334835,"Name":"Municipiul Ia\u015fi","Latitude":"47.16184","Longitude":"27.58451","CountryCode":"RO","Population":0,"Status":200,"Created":"2015-10-23 09:20:56","Updated":"2015-10-23 09:20:56"},{"GeonameId":8335000,"Name":"Municipiul Pa\u015fcani","Latitude":"47.24736","Longitude":"26.71235","CountryCode":"RO","Population":0,"Status":200,"Created":"2015-10-23 09:20:56","Updated":"2015-10-23 09:20:56"},{"GeonameId":676175,"Name":"Ora\u015f H\u00e2rl\u00e3u","Latitude":"47.43153","Longitude":"26.87774","CountryCode":"RO","Population":0,"Status":200,"Created":"2015-10-23 09:20:56","Updated":"2015-10-23 09:20:56"},{"GeonameId":670296,"Name":"Ora\u015f Podu Iloaiei","Latitude":"47.20807","Longitude":"27.26548","CountryCode":"RO","Population":0,"Status":200,"Created":"2015-10-23 09:20:56","Updated":"2015-10-23 09:20:56"},{"GeonameId":665012,"Name":"Ora\u015f T\u00e2rgu Frumos","Latitude":"47.20788","Longitude":"27.01196","CountryCode":"RO","Population":0,"Status":200,"Created":"2015-10-23 09:20:56","Updated":"2015-10-23 09:20:56"}]