[{"GeonameId":686644,"Name":"Comuna Afuma\u0163i","Latitude":"43.99793","Longitude":"23.44386","CountryCode":"RO","Population":0,"Status":200,"Created":"2015-10-23 09:20:54","Updated":"2015-10-23 09:20:54"},{"GeonameId":686462,"Name":"Comuna Alm\u00e3j","Latitude":"44.44093","Longitude":"23.70915","CountryCode":"RO","Population":0,"Status":200,"Created":"2015-10-23 09:20:54","Updated":"2015-10-23 09:20:54"},{"GeonameId":686385,"Name":"Comuna Am\u0103r\u0103\u015ftii de Jos","Latitude":"43.92611","Longitude":"24.16076","CountryCode":"RO","Population":0,"Status":200,"Created":"2015-10-23 09:20:54","Updated":"2015-10-23 09:20:54"},{"GeonameId":686383,"Name":"Comuna Am\u0103r\u0103\u015ftii de Sus","Latitude":"43.98588","Longitude":"24.16715","CountryCode":"RO","Population":0,"Status":200,"Created":"2015-10-23 09:20:54","Updated":"2015-10-23 09:20:54"},{"GeonameId":686273,"Name":"Comuna Apele Vii","Latitude":"44.06658","Longitude":"24.06611","CountryCode":"RO","Population":0,"Status":200,"Created":"2015-10-23 09:20:54","Updated":"2015-10-23 09:20:54"},{"GeonameId":686185,"Name":"Comuna Argetoaia","Latitude":"44.5092","Longitude":"23.37593","CountryCode":"RO","Population":0,"Status":200,"Created":"2015-10-23 09:20:54","Updated":"2015-10-23 09:20:54"},{"GeonameId":684664,"Name":"Comuna Bistre\u0163","Latitude":"43.90162","Longitude":"23.52291","CountryCode":"RO","Population":0,"Status":200,"Created":"2015-10-23 09:20:54","Updated":"2015-10-23 09:20:54"},{"GeonameId":684030,"Name":"Comuna Boto\u015fe\u015fti-Paia","Latitude":"44.4039","Longitude":"23.26381","CountryCode":"RO","Population":0,"Status":200,"Created":"2015-10-23 09:20:54","Updated":"2015-10-23 09:20:54"},{"GeonameId":683978,"Name":"Comuna Brabova","Latitude":"44.35864","Longitude":"23.39816","CountryCode":"RO","Population":0,"Status":200,"Created":"2015-10-23 09:20:54","Updated":"2015-10-23 09:20:54"},{"GeonameId":683892,"Name":"Comuna Bralo\u015fti\u0163a","Latitude":"44.50483","Longitude":"23.49123","CountryCode":"RO","Population":0,"Status":200,"Created":"2015-10-23 09:20:54","Updated":"2015-10-23 09:20:54"},{"GeonameId":683789,"Name":"Comuna Bratovoe\u015fti","Latitude":"44.13725","Longitude":"23.91445","CountryCode":"RO","Population":0,"Status":200,"Created":"2015-10-23 09:20:54","Updated":"2015-10-23 09:20:54"},{"GeonameId":683763,"Name":"Comuna Breasta","Latitude":"44.34924","Longitude":"23.67073","CountryCode":"RO","Population":0,"Status":200,"Created":"2015-10-23 09:20:54","Updated":"2015-10-23 09:20:54"},{"GeonameId":683958,"Name":"Comuna Br\u0103de\u015fti","Latitude":"44.51766","Longitude":"23.61747","CountryCode":"RO","Population":0,"Status":200,"Created":"2015-10-23 09:20:54","Updated":"2015-10-23 09:20:54"},{"GeonameId":683539,"Name":"Comuna Bucov\u0103\u0163","Latitude":"44.29453","Longitude":"23.69512","CountryCode":"RO","Population":0,"Status":200,"Created":"2015-10-23 09:20:54","Updated":"2015-10-23 09:20:54"},{"GeonameId":683303,"Name":"Comuna Bulze\u015fti","Latitude":"44.59126","Longitude":"23.8718","CountryCode":"RO","Population":0,"Status":200,"Created":"2015-10-23 09:20:54","Updated":"2015-10-23 09:20:54"},{"GeonameId":684827,"Name":"Comuna B\u00e2rca","Latitude":"43.96954","Longitude":"23.61782","CountryCode":"RO","Population":0,"Status":200,"Created":"2015-10-23 09:20:54","Updated":"2015-10-23 09:20:54"},{"GeonameId":682924,"Name":"Comuna Calop\u0103ru","Latitude":"44.1556","Longitude":"23.75966","CountryCode":"RO","Population":0,"Status":200,"Created":"2015-10-23 09:20:54","Updated":"2015-10-23 09:20:54"},{"GeonameId":682706,"Name":"Comuna Caraula","Latitude":"44.19287","Longitude":"23.25298","CountryCode":"RO","Population":0,"Status":200,"Created":"2015-10-23 09:20:54","Updated":"2015-10-23 09:20:54"},{"GeonameId":682670,"Name":"Comuna Carpen","Latitude":"44.34169","Longitude":"23.26059","CountryCode":"RO","Population":0,"Status":200,"Created":"2015-10-23 09:20:54","Updated":"2015-10-23 09:20:54"},{"GeonameId":682585,"Name":"Comuna Castranova","Latitude":"44.12778","Longitude":"24.0124","CountryCode":"RO","Population":0,"Status":200,"Created":"2015-10-23 09:20:54","Updated":"2015-10-23 09:20:54"},{"GeonameId":682564,"Name":"Comuna Catane","Latitude":"43.92584","Longitude":"23.41332","CountryCode":"RO","Population":0,"Status":200,"Created":"2015-10-23 09:20:54","Updated":"2015-10-23 09:20:54"},{"GeonameId":682435,"Name":"Comuna Celaru","Latitude":"44.04192","Longitude":"24.11972","CountryCode":"RO","Population":0,"Status":200,"Created":"2015-10-23 09:20:54","Updated":"2015-10-23 09:20:54"},{"GeonameId":682327,"Name":"Comuna Cern\u0103te\u015fti","Latitude":"44.44315","Longitude":"23.47578","CountryCode":"RO","Population":0,"Status":200,"Created":"2015-10-23 09:20:54","Updated":"2015-10-23 09:20:54"},{"GeonameId":682393,"Name":"Comuna Cer\u00e3t","Latitude":"44.07358","Longitude":"23.67078","CountryCode":"RO","Population":0,"Status":200,"Created":"2015-10-23 09:20:54","Updated":"2015-10-23 09:20:54"},{"GeonameId":682265,"Name":"Comuna Cetate","Latitude":"44.09894","Longitude":"23.0637","CountryCode":"RO","Population":0,"Status":200,"Created":"2015-10-23 09:20:54","Updated":"2015-10-23 09:20:54"},{"GeonameId":681643,"Name":"Comuna Cioroia\u015fi","Latitude":"44.08624","Longitude":"23.45207","CountryCode":"RO","Population":0,"Status":200,"Created":"2015-10-23 09:20:54","Updated":"2015-10-23 09:20:54"},{"GeonameId":681396,"Name":"Comuna Ciupercenii Noi","Latitude":"43.92186","Longitude":"22.95877","CountryCode":"RO","Population":0,"Status":200,"Created":"2015-10-23 09:20:54","Updated":"2015-10-23 09:20:54"},{"GeonameId":680600,"Name":"Comuna Co\u015foveni","Latitude":"44.24628","Longitude":"23.93612","CountryCode":"RO","Population":0,"Status":200,"Created":"2015-10-23 09:20:54","Updated":"2015-10-23 09:20:54"},{"GeonameId":680480,"Name":"Comuna Co\u0163ofenii din Dos","Latitude":"44.41282","Longitude":"23.64369","CountryCode":"RO","Population":0,"Status":200,"Created":"2015-10-23 09:20:54","Updated":"2015-10-23 09:20:54"},{"GeonameId":680478,"Name":"Comuna Co\u0163ofenii din Fa\u0163\u0103","Latitude":"44.45275","Longitude":"23.67053","CountryCode":"RO","Population":0,"Status":200,"Created":"2015-10-23 09:20:54","Updated":"2015-10-23 09:20:54"},{"GeonameId":8334629,"Name":"Comuna C\u00e2rcea","Latitude":"44.26856","Longitude":"23.89801","CountryCode":"RO","Population":0,"Status":200,"Created":"2015-10-23 09:20:54","Updated":"2015-10-23 09:20:54"},{"GeonameId":681540,"Name":"Comuna C\u00e2rna","Latitude":"43.88613","Longitude":"23.60153","CountryCode":"RO","Population":0,"Status":200,"Created":"2015-10-23 09:20:54","Updated":"2015-10-23 09:20:54"},{"GeonameId":683019,"Name":"Comuna C\u0103l\u0103ra\u015fi","Latitude":"43.78416","Longitude":"24.04076","CountryCode":"RO","Population":0,"Status":200,"Created":"2015-10-23 09:20:54","Updated":"2015-10-23 09:20:54"},{"GeonameId":679463,"Name":"Comuna Desa","Latitude":"43.87038","Longitude":"23.03236","CountryCode":"RO","Population":0,"Status":200,"Created":"2015-10-23 09:20:54","Updated":"2015-10-23 09:20:54"},{"GeonameId":679334,"Name":"Comuna Dio\u015fti","Latitude":"44.12923","Longitude":"24.17156","CountryCode":"RO","Population":0,"Status":200,"Created":"2015-10-23 09:20:54","Updated":"2015-10-23 09:20:54"},{"GeonameId":679246,"Name":"Comuna Dobre\u015fti","Latitude":"43.96771","Longitude":"23.95341","CountryCode":"RO","Population":0,"Status":200,"Created":"2015-10-23 09:20:54","Updated":"2015-10-23 09:20:54"},{"GeonameId":679201,"Name":"Comuna Dobrote\u015fti","Latitude":"43.96749","Longitude":"24.12835","CountryCode":"RO","Population":0,"Status":200,"Created":"2015-10-23 09:20:54","Updated":"2015-10-23 09:20:54"},{"GeonameId":678859,"Name":"Comuna Dr\u00e3nic","Latitude":"44.05601","Longitude":"23.84033","CountryCode":"RO","Population":0,"Status":200,"Created":"2015-10-23 09:20:54","Updated":"2015-10-23 09:20:54"},{"GeonameId":678901,"Name":"Comuna Dr\u0103gote\u015fti","Latitude":"44.25774","Longitude":"24.08138","CountryCode":"RO","Population":0,"Status":200,"Created":"2015-10-23 09:20:54","Updated":"2015-10-23 09:20:54"},{"GeonameId":679748,"Name":"Comuna D\u0103ne\u0163i","Latitude":"43.9775","Longitude":"24.04015","CountryCode":"RO","Population":0,"Status":200,"Created":"2015-10-23 09:20:54","Updated":"2015-10-23 09:20:54"},{"GeonameId":678424,"Name":"Comuna F\u00e3rca\u015f","Latitude":"44.61267","Longitude":"23.74081","CountryCode":"RO","Population":0,"Status":200,"Created":"2015-10-23 09:20:54","Updated":"2015-10-23 09:20:54"},{"GeonameId":677647,"Name":"Comuna Galicea Mare","Latitude":"44.09805","Longitude":"23.30967","CountryCode":"RO","Population":0,"Status":200,"Created":"2015-10-23 09:20:54","Updated":"2015-10-23 09:20:54"},{"GeonameId":8334628,"Name":"Comuna Galiciuica","Latitude":"44.10189","Longitude":"23.38921","CountryCode":"RO","Population":0,"Status":200,"Created":"2015-10-23 09:20:54","Updated":"2015-10-23 09:20:54"},{"GeonameId":677449,"Name":"Comuna Gherce\u015fti","Latitude":"44.38567","Longitude":"23.92481","CountryCode":"RO","Population":0,"Status":200,"Created":"2015-10-23 09:20:54","Updated":"2015-10-23 09:20:54"},{"GeonameId":8334627,"Name":"Comuna Ghidici","Latitude":"43.88899","Longitude":"23.19454","CountryCode":"RO","Population":0,"Status":200,"Created":"2015-10-23 09:20:54","Updated":"2015-10-23 09:20:54"},{"GeonameId":677354,"Name":"Comuna Ghindeni","Latitude":"44.21223","Longitude":"23.92336","CountryCode":"RO","Population":0,"Status":200,"Created":"2015-10-23 09:20:54","Updated":"2015-10-23 09:20:54"},{"GeonameId":677285,"Name":"Comuna Gighera","Latitude":"43.84806","Longitude":"23.8059","CountryCode":"RO","Population":0,"Status":200,"Created":"2015-10-23 09:20:54","Updated":"2015-10-23 09:20:54"},{"GeonameId":677149,"Name":"Comuna Giubega","Latitude":"44.12821","Longitude":"23.41164","CountryCode":"RO","Population":0,"Status":200,"Created":"2015-10-23 09:20:54","Updated":"2015-10-23 09:20:54"},{"GeonameId":677107,"Name":"Comuna Giurgi\u0163a","Latitude":"44.00721","Longitude":"23.6305","CountryCode":"RO","Population":0,"Status":200,"Created":"2015-10-23 09:20:54","Updated":"2015-10-23 09:20:54"},{"GeonameId":676973,"Name":"Comuna Gogo\u015fu","Latitude":"44.41717","Longitude":"23.37842","CountryCode":"RO","Population":0,"Status":200,"Created":"2015-10-23 09:20:54","Updated":"2015-10-23 09:20:54"},{"GeonameId":676968,"Name":"Comuna Goicea","Latitude":"43.92623","Longitude":"23.61845","CountryCode":"RO","Population":0,"Status":200,"Created":"2015-10-23 09:20:54","Updated":"2015-10-23 09:20:54"},{"GeonameId":676992,"Name":"Comuna Goie\u015fti","Latitude":"44.48627","Longitude":"23.75375","CountryCode":"RO","Population":0,"Status":200,"Created":"2015-10-23 09:20:54","Updated":"2015-10-23 09:20:54"},{"GeonameId":676761,"Name":"Comuna Grece\u015fti","Latitude":"44.45468","Longitude":"23.26394","CountryCode":"RO","Population":0,"Status":200,"Created":"2015-10-23 09:20:54","Updated":"2015-10-23 09:20:54"},{"GeonameId":677255,"Name":"Comuna G\u00e2ngiova","Latitude":"43.88621","Longitude":"23.86161","CountryCode":"RO","Population":0,"Status":200,"Created":"2015-10-23 09:20:54","Updated":"2015-10-23 09:20:54"},{"GeonameId":668532,"Name":"Comuna Izvoare","Latitude":"44.15","Longitude":"23.28333","CountryCode":"RO","Population":0,"Status":200,"Created":"2015-10-23 09:20:54","Updated":"2015-10-23 09:20:54"},{"GeonameId":675488,"Name":"Comuna I\u015falni\u0163a","Latitude":"44.3939","Longitude":"23.73711","CountryCode":"RO","Population":0,"Status":200,"Created":"2015-10-23 09:20:54","Updated":"2015-10-23 09:20:54"},{"GeonameId":674822,"Name":"Comuna Leu","Latitude":"44.17207","Longitude":"24.04971","CountryCode":"RO","Population":0,"Status":200,"Created":"2015-10-23 09:20:54","Updated":"2015-10-23 09:20:54"},{"GeonameId":674725,"Name":"Comuna Lipovu","Latitude":"44.11342","Longitude":"23.62736","CountryCode":"RO","Population":0,"Status":200,"Created":"2015-10-23 09:20:54","Updated":"2015-10-23 09:20:54"},{"GeonameId":674169,"Name":"Comuna Maglavit","Latitude":"44.04339","Longitude":"23.09854","CountryCode":"RO","Population":0,"Status":200,"Created":"2015-10-23 09:20:54","Updated":"2015-10-23 09:20:54"},{"GeonameId":673990,"Name":"Comuna Malu Mare","Latitude":"44.23844","Longitude":"23.8557","CountryCode":"RO","Population":0,"Status":200,"Created":"2015-10-23 09:20:54","Updated":"2015-10-23 09:20:54"},{"GeonameId":673599,"Name":"Comuna Meline\u015fti","Latitude":"44.5631","Longitude":"23.6953","CountryCode":"RO","Population":0,"Status":200,"Created":"2015-10-23 09:20:54","Updated":"2015-10-23 09:20:54"},{"GeonameId":673070,"Name":"Comuna Mischii","Latitude":"44.42093","Longitude":"23.86238","CountryCode":"RO","Population":0,"Status":200,"Created":"2015-10-23 09:20:54","Updated":"2015-10-23 09:20:54"},{"GeonameId":672783,"Name":"Comuna Mo\u0163\u0103\u0163ei","Latitude":"44.08454","Longitude":"23.18856","CountryCode":"RO","Population":0,"Status":200,"Created":"2015-10-23 09:20:54","Updated":"2015-10-23 09:20:54"},{"GeonameId":672618,"Name":"Comuna Murga\u015fi","Latitude":"44.54342","Longitude":"23.82994","CountryCode":"RO","Population":0,"Status":200,"Created":"2015-10-23 09:20:54","Updated":"2015-10-23 09:20:54"},{"GeonameId":673089,"Name":"Comuna M\u00e2r\u015fani","Latitude":"44.01157","Longitude":"24.01919","CountryCode":"RO","Population":0,"Status":200,"Created":"2015-10-23 09:20:54","Updated":"2015-10-23 09:20:54"},{"GeonameId":674236,"Name":"Comuna M\u0103ce\u015fu de Jos","Latitude":"43.87966","Longitude":"23.68954","CountryCode":"RO","Population":0,"Status":200,"Created":"2015-10-23 09:20:54","Updated":"2015-10-23 09:20:54"},{"GeonameId":674234,"Name":"Comuna M\u0103ce\u015fu de Sus","Latitude":"43.91667","Longitude":"23.71126","CountryCode":"RO","Population":0,"Status":200,"Created":"2015-10-23 09:20:54","Updated":"2015-10-23 09:20:54"},{"GeonameId":672415,"Name":"Comuna Negoi","Latitude":"43.91396","Longitude":"23.37288","CountryCode":"RO","Population":0,"Status":200,"Created":"2015-10-23 09:20:54","Updated":"2015-10-23 09:20:54"},{"GeonameId":671690,"Name":"Comuna Orodel","Latitude":"44.26414","Longitude":"23.2739","CountryCode":"RO","Population":0,"Status":200,"Created":"2015-10-23 09:20:54","Updated":"2015-10-23 09:20:54"},{"GeonameId":671623,"Name":"Comuna Ostroveni","Latitude":"43.82121","Longitude":"23.90789","CountryCode":"RO","Population":0,"Status":200,"Created":"2015-10-23 09:20:54","Updated":"2015-10-23 09:20:54"},{"GeonameId":671108,"Name":"Comuna Peri\u015for","Latitude":"44.15843","Longitude":"23.49214","CountryCode":"RO","Population":0,"Status":200,"Created":"2015-10-23 09:20:54","Updated":"2015-10-23 09:20:54"},{"GeonameId":670867,"Name":"Comuna Piele\u015fti","Latitude":"44.35632","Longitude":"23.9757","CountryCode":"RO","Population":0,"Status":200,"Created":"2015-10-23 09:20:54","Updated":"2015-10-23 09:20:54"},{"GeonameId":670622,"Name":"Comuna Piscu Vechi","Latitude":"43.89938","Longitude":"23.16364","CountryCode":"RO","Population":0,"Status":200,"Created":"2015-10-23 09:20:54","Updated":"2015-10-23 09:20:54"},{"GeonameId":670527,"Name":"Comuna Pleni\u0163a","Latitude":"44.22532","Longitude":"23.16364","CountryCode":"RO","Population":0,"Status":200,"Created":"2015-10-23 09:20:54","Updated":"2015-10-23 09:20:54"},{"GeonameId":670490,"Name":"Comuna Ple\u015foi","Latitude":"44.3538","Longitude":"23.54284","CountryCode":"RO","Population":0,"Status":200,"Created":"2015-10-23 09:20:54","Updated":"2015-10-23 09:20:54"},{"GeonameId":670351,"Name":"Comuna Podari","Latitude":"44.24394","Longitude":"23.79217","CountryCode":"RO","Population":0,"Status":200,"Created":"2015-10-23 09:20:54","Updated":"2015-10-23 09:20:54"},{"GeonameId":670061,"Name":"Comuna Poiana Mare","Latitude":"43.9204","Longitude":"23.06271","CountryCode":"RO","Population":0,"Status":200,"Created":"2015-10-23 09:20:54","Updated":"2015-10-23 09:20:54"},{"GeonameId":669694,"Name":"Comuna Prede\u015fti","Latitude":"44.3464","Longitude":"23.58506","CountryCode":"RO","Population":0,"Status":200,"Created":"2015-10-23 09:20:54","Updated":"2015-10-23 09:20:54"},{"GeonameId":669243,"Name":"Comuna Radovan","Latitude":"44.17687","Longitude":"23.58518","CountryCode":"RO","Population":0,"Status":200,"Created":"2015-10-23 09:20:54","Updated":"2015-10-23 09:20:54"},{"GeonameId":669127,"Name":"Comuna Rast","Latitude":"43.88713","Longitude":"23.28409","CountryCode":"RO","Population":0,"Status":200,"Created":"2015-10-23 09:20:54","Updated":"2015-10-23 09:20:54"},{"GeonameId":668792,"Name":"Comuna Rob\u0103ne\u015fti","Latitude":"44.30356","Longitude":"24.00582","CountryCode":"RO","Population":0,"Status":200,"Created":"2015-10-23 09:20:54","Updated":"2015-10-23 09:20:54"},{"GeonameId":668738,"Name":"Comuna Roji\u015fte","Latitude":"44.04731","Longitude":"23.9375","CountryCode":"RO","Population":0,"Status":200,"Created":"2015-10-23 09:20:54","Updated":"2015-10-23 09:20:54"},{"GeonameId":668285,"Name":"Comuna Sadova","Latitude":"43.88749","Longitude":"23.94622","CountryCode":"RO","Population":0,"Status":200,"Created":"2015-10-23 09:20:54","Updated":"2015-10-23 09:20:54"},{"GeonameId":667737,"Name":"Comuna Sc\u0103e\u015fti","Latitude":"44.46591","Longitude":"23.54822","CountryCode":"RO","Population":0,"Status":200,"Created":"2015-10-23 09:20:54","Updated":"2015-10-23 09:20:54"},{"GeonameId":667531,"Name":"Comuna Seaca de C\u00e2mp","Latitude":"43.92824","Longitude":"23.19955","CountryCode":"RO","Population":0,"Status":200,"Created":"2015-10-23 09:20:54","Updated":"2015-10-23 09:20:54"},{"GeonameId":667529,"Name":"Comuna Seaca de P\u0103dure","Latitude":"44.37108","Longitude":"23.32359","CountryCode":"RO","Population":0,"Status":200,"Created":"2015-10-23 09:20:54","Updated":"2015-10-23 09:20:54"},{"GeonameId":667475,"Name":"Comuna Secu","Latitude":"44.47854","Longitude":"23.29525","CountryCode":"RO","Population":0,"Status":200,"Created":"2015-10-23 09:20:54","Updated":"2015-10-23 09:20:54"},{"GeonameId":667171,"Name":"Comuna Sili\u015ftea Crucii","Latitude":"44.04488","Longitude":"23.48194","CountryCode":"RO","Population":0,"Status":200,"Created":"2015-10-23 09:20:54","Updated":"2015-10-23 09:20:54"},{"GeonameId":666434,"Name":"Comuna Sopot","Latitude":"44.39061","Longitude":"23.51252","CountryCode":"RO","Population":0,"Status":200,"Created":"2015-10-23 09:20:54","Updated":"2015-10-23 09:20:54"},{"GeonameId":668163,"Name":"Comuna S\u0103lcu\u0163a","Latitude":"44.22948","Longitude":"23.45454","CountryCode":"RO","Population":0,"Status":200,"Created":"2015-10-23 09:20:54","Updated":"2015-10-23 09:20:54"},{"GeonameId":665366,"Name":"Comuna Teasc","Latitude":"44.1782","Longitude":"23.8639","CountryCode":"RO","Population":0,"Status":200,"Created":"2015-10-23 09:20:54","Updated":"2015-10-23 09:20:54"},{"GeonameId":665224,"Name":"Comuna Terpezi\u0163a","Latitude":"44.30631","Longitude":"23.49202","CountryCode":"RO","Population":0,"Status":200,"Created":"2015-10-23 09:20:54","Updated":"2015-10-23 09:20:54"},{"GeonameId":684098,"Name":"Comuna Teslui","Latitude":"44.20534","Longitude":"24.15241","CountryCode":"RO","Population":0,"Status":200,"Created":"2015-10-23 09:20:54","Updated":"2015-10-23 09:20:54"},{"GeonameId":665589,"Name":"Comuna T\u00e3lpa\u015f","Latitude":"44.68256","Longitude":"23.74391","CountryCode":"RO","Population":0,"Status":200,"Created":"2015-10-23 09:20:54","Updated":"2015-10-23 09:20:54"},{"GeonameId":8334785,"Name":"Comuna Unirea","Latitude":"44.15811","Longitude":"23.17936","CountryCode":"RO","Population":0,"Status":200,"Created":"2015-10-23 09:20:54","Updated":"2015-10-23 09:20:54"},{"GeonameId":664068,"Name":"Comuna Urzicu\u0163a","Latitude":"44.01485","Longitude":"23.56956","CountryCode":"RO","Population":0,"Status":200,"Created":"2015-10-23 09:20:54","Updated":"2015-10-23 09:20:54"},{"GeonameId":684731,"Name":"Comuna Valea Stanciului","Latitude":"43.98333","Longitude":"23.86667","CountryCode":"RO","Population":0,"Status":200,"Created":"2015-10-23 09:20:54","Updated":"2015-10-23 09:20:54"},{"GeonameId":663077,"Name":"Comuna Vela","Latitude":"44.28526","Longitude":"23.37887","CountryCode":"RO","Population":0,"Status":200,"Created":"2015-10-23 09:20:54","Updated":"2015-10-23 09:20:54"},{"GeonameId":663057,"Name":"Comuna Verbi\u0163a","Latitude":"44.29305","Longitude":"23.17886","CountryCode":"RO","Population":0,"Status":200,"Created":"2015-10-23 09:20:54","Updated":"2015-10-23 09:20:54"},{"GeonameId":662725,"Name":"Comuna V\u00e2rtop","Latitude":"44.20873","Longitude":"23.34831","CountryCode":"RO","Population":0,"Status":200,"Created":"2015-10-23 09:20:54","Updated":"2015-10-23 09:20:54"},{"GeonameId":662716,"Name":"Comuna V\u00e2rvoru de Jos","Latitude":"44.24458","Longitude":"23.60636","CountryCode":"RO","Population":0,"Status":200,"Created":"2015-10-23 09:20:54","Updated":"2015-10-23 09:20:54"},{"GeonameId":675586,"Name":"Comuna \u00centorsura","Latitude":"44.11226","Longitude":"23.57574","CountryCode":"RO","Population":0,"Status":200,"Created":"2015-10-23 09:20:54","Updated":"2015-10-23 09:20:54"},{"GeonameId":667097,"Name":"Comuna \u015eimnicu de Sus","Latitude":"44.41283","Longitude":"23.78863","CountryCode":"RO","Population":0,"Status":200,"Created":"2015-10-23 09:20:54","Updated":"2015-10-23 09:20:54"},{"GeonameId":664533,"Name":"Comuna \u0162uglui","Latitude":"44.20034","Longitude":"23.82296","CountryCode":"RO","Population":0,"Status":200,"Created":"2015-10-23 09:20:54","Updated":"2015-10-23 09:20:54"},{"GeonameId":8334608,"Name":"Municipiul B\u00e3ile\u015fti","Latitude":"44.02121","Longitude":"23.34475","CountryCode":"RO","Population":0,"Status":200,"Created":"2015-10-23 09:20:54","Updated":"2015-10-23 09:20:54"},{"GeonameId":8334609,"Name":"Municipiul Calafat","Latitude":"43.98979","Longitude":"22.9313","CountryCode":"RO","Population":0,"Status":200,"Created":"2015-10-23 09:20:54","Updated":"2015-10-23 09:20:54"},{"GeonameId":8334607,"Name":"Municipiul Craiova","Latitude":"44.31943","Longitude":"23.80875","CountryCode":"RO","Population":0,"Status":200,"Created":"2015-10-23 09:20:54","Updated":"2015-10-23 09:20:54"},{"GeonameId":685217,"Name":"Ora\u015f Bechet","Latitude":"43.78301","Longitude":"23.9587","CountryCode":"RO","Population":0,"Status":200,"Created":"2015-10-23 09:20:54","Updated":"2015-10-23 09:20:54"},{"GeonameId":679840,"Name":"Ora\u015f D\u00e3buleni","Latitude":"43.78047","Longitude":"24.08653","CountryCode":"RO","Population":0,"Status":200,"Created":"2015-10-23 09:20:54","Updated":"2015-10-23 09:20:54"},{"GeonameId":678259,"Name":"Ora\u015f Filia\u015fi","Latitude":"44.56847","Longitude":"23.55164","CountryCode":"RO","Population":0,"Status":200,"Created":"2015-10-23 09:20:54","Updated":"2015-10-23 09:20:54"},{"GeonameId":667451,"Name":"Ora\u015f Segarcea","Latitude":"44.09434","Longitude":"23.74197","CountryCode":"RO","Population":0,"Status":200,"Created":"2015-10-23 09:20:54","Updated":"2015-10-23 09:20:54"}]