[{"GeonameId":686687,"Name":"Comuna Adamclisi","Latitude":"44.11447","Longitude":"27.9499","CountryCode":"RO","Population":0,"Status":200,"Created":"2015-10-23 09:20:54","Updated":"2015-10-23 09:20:54"},{"GeonameId":686625,"Name":"Comuna Agigea","Latitude":"44.09654","Longitude":"28.62684","CountryCode":"RO","Population":0,"Status":200,"Created":"2015-10-23 09:20:54","Updated":"2015-10-23 09:20:54"},{"GeonameId":686554,"Name":"Comuna Albe\u015fti","Latitude":"43.80863","Longitude":"28.40325","CountryCode":"RO","Population":0,"Status":200,"Created":"2015-10-23 09:20:54","Updated":"2015-10-23 09:20:54"},{"GeonameId":686475,"Name":"Comuna Aliman","Latitude":"44.1843","Longitude":"27.83697","CountryCode":"RO","Population":0,"Status":200,"Created":"2015-10-23 09:20:54","Updated":"2015-10-23 09:20:54"},{"GeonameId":8334892,"Name":"Comuna Amzacea","Latitude":"43.95983","Longitude":"28.32122","CountryCode":"RO","Population":0,"Status":200,"Created":"2015-10-23 09:20:54","Updated":"2015-10-23 09:20:54"},{"GeonameId":685432,"Name":"Comuna B\u0103r\u0103ganu","Latitude":"44.07931","Longitude":"28.39887","CountryCode":"RO","Population":0,"Status":200,"Created":"2015-10-23 09:20:54","Updated":"2015-10-23 09:20:54"},{"GeonameId":682588,"Name":"Comuna Castelu","Latitude":"44.25846","Longitude":"28.36908","CountryCode":"RO","Population":0,"Status":200,"Created":"2015-10-23 09:20:54","Updated":"2015-10-23 09:20:54"},{"GeonameId":682368,"Name":"Comuna Cerchezu","Latitude":"43.84984","Longitude":"28.08444","CountryCode":"RO","Population":0,"Status":200,"Created":"2015-10-23 09:20:54","Updated":"2015-10-23 09:20:54"},{"GeonameId":682037,"Name":"Comuna Chirnogeni","Latitude":"43.94216","Longitude":"28.22195","CountryCode":"RO","Population":0,"Status":200,"Created":"2015-10-23 09:20:54","Updated":"2015-10-23 09:20:54"},{"GeonameId":681774,"Name":"Comuna Ciobanu","Latitude":"44.71771","Longitude":"27.98904","CountryCode":"RO","Population":0,"Status":200,"Created":"2015-10-23 09:20:54","Updated":"2015-10-23 09:20:54"},{"GeonameId":681717,"Name":"Comuna Cioc\u00e2rlia","Latitude":"44.11098","Longitude":"28.31161","CountryCode":"RO","Population":0,"Status":200,"Created":"2015-10-23 09:20:54","Updated":"2015-10-23 09:20:54"},{"GeonameId":681256,"Name":"Comuna Cobadin","Latitude":"44.02574","Longitude":"28.16695","CountryCode":"RO","Population":0,"Status":200,"Created":"2015-10-23 09:20:54","Updated":"2015-10-23 09:20:54"},{"GeonameId":681159,"Name":"Comuna Cogealac","Latitude":"44.57661","Longitude":"28.52244","CountryCode":"RO","Population":0,"Status":200,"Created":"2015-10-23 09:20:54","Updated":"2015-10-23 09:20:54"},{"GeonameId":681034,"Name":"Comuna Comana","Latitude":"43.89963","Longitude":"28.35491","CountryCode":"RO","Population":0,"Status":200,"Created":"2015-10-23 09:20:54","Updated":"2015-10-23 09:20:54"},{"GeonameId":680858,"Name":"Comuna Corbu","Latitude":"44.40319","Longitude":"28.67797","CountryCode":"RO","Population":0,"Status":200,"Created":"2015-10-23 09:20:54","Updated":"2015-10-23 09:20:54"},{"GeonameId":8334814,"Name":"Comuna Costine\u015fti","Latitude":"43.9478","Longitude":"28.63284","CountryCode":"RO","Population":0,"Status":200,"Created":"2015-10-23 09:20:54","Updated":"2015-10-23 09:20:54"},{"GeonameId":680088,"Name":"Comuna Crucea","Latitude":"44.55046","Longitude":"28.20592","CountryCode":"RO","Population":0,"Status":200,"Created":"2015-10-23 09:20:54","Updated":"2015-10-23 09:20:54"},{"GeonameId":679965,"Name":"Comuna Cump\u0103na","Latitude":"44.10747","Longitude":"28.51226","CountryCode":"RO","Population":0,"Status":200,"Created":"2015-10-23 09:20:54","Updated":"2015-10-23 09:20:54"},{"GeonameId":8334991,"Name":"Comuna Cuza Voda","Latitude":"44.28773","Longitude":"28.31005","CountryCode":"RO","Population":0,"Status":200,"Created":"2015-10-23 09:20:54","Updated":"2015-10-23 09:20:54"},{"GeonameId":679515,"Name":"Comuna Deleni","Latitude":"44.06175","Longitude":"28.02263","CountryCode":"RO","Population":0,"Status":200,"Created":"2015-10-23 09:20:54","Updated":"2015-10-23 09:20:54"},{"GeonameId":679030,"Name":"Comuna Dou\u0103zeci \u015fi Trei August","Latitude":"43.91938","Longitude":"28.55437","CountryCode":"RO","Population":0,"Status":200,"Created":"2015-10-23 09:20:54","Updated":"2015-10-23 09:20:54"},{"GeonameId":678698,"Name":"Comuna Dumbr\u0103veni","Latitude":"43.9461","Longitude":"27.99344","CountryCode":"RO","Population":0,"Status":200,"Created":"2015-10-23 09:20:54","Updated":"2015-10-23 09:20:54"},{"GeonameId":678146,"Name":"Comuna F\u00e2nt\u00e2nele","Latitude":"44.61278","Longitude":"28.57655","CountryCode":"RO","Population":0,"Status":200,"Created":"2015-10-23 09:20:54","Updated":"2015-10-23 09:20:54"},{"GeonameId":677359,"Name":"Comuna Ghind\u0103re\u015fti","Latitude":"44.6352","Longitude":"28.03193","CountryCode":"RO","Population":0,"Status":200,"Created":"2015-10-23 09:20:54","Updated":"2015-10-23 09:20:54"},{"GeonameId":676834,"Name":"Comuna Gr\u0103dina","Latitude":"44.52298","Longitude":"28.44846","CountryCode":"RO","Population":0,"Status":200,"Created":"2015-10-23 09:20:54","Updated":"2015-10-23 09:20:54"},{"GeonameId":677174,"Name":"Comuna G\u00e2rliciu","Latitude":"44.77933","Longitude":"28.09461","CountryCode":"RO","Population":0,"Status":200,"Created":"2015-10-23 09:20:54","Updated":"2015-10-23 09:20:54"},{"GeonameId":676006,"Name":"Comuna Horia","Latitude":"44.63551","Longitude":"28.12034","CountryCode":"RO","Population":0,"Status":200,"Created":"2015-10-23 09:20:54","Updated":"2015-10-23 09:20:54"},{"GeonameId":675611,"Name":"Comuna Independen\u0163a","Latitude":"43.9602","Longitude":"28.0629","CountryCode":"RO","Population":0,"Status":200,"Created":"2015-10-23 09:20:54","Updated":"2015-10-23 09:20:54"},{"GeonameId":675555,"Name":"Comuna Ion Corvin","Latitude":"44.10717","Longitude":"27.80268","CountryCode":"RO","Population":0,"Status":200,"Created":"2015-10-23 09:20:54","Updated":"2015-10-23 09:20:54"},{"GeonameId":675470,"Name":"Comuna Istria","Latitude":"44.55487","Longitude":"28.68155","CountryCode":"RO","Population":0,"Status":200,"Created":"2015-10-23 09:20:54","Updated":"2015-10-23 09:20:54"},{"GeonameId":674781,"Name":"Comuna Limanu","Latitude":"43.78024","Longitude":"28.53931","CountryCode":"RO","Population":6120,"Status":200,"Created":"2015-10-23 09:20:54","Updated":"2015-10-23 09:20:54"},{"GeonameId":674734,"Name":"Comuna Lipni\u0163a","Latitude":"44.09073","Longitude":"27.56683","CountryCode":"RO","Population":0,"Status":200,"Created":"2015-10-23 09:20:54","Updated":"2015-10-23 09:20:54"},{"GeonameId":8334751,"Name":"Comuna Lumina","Latitude":"44.32756","Longitude":"28.54709","CountryCode":"RO","Population":0,"Status":200,"Created":"2015-10-23 09:20:54","Updated":"2015-10-23 09:20:54"},{"GeonameId":673576,"Name":"Comuna Mereni","Latitude":"44.01545","Longitude":"28.33559","CountryCode":"RO","Population":0,"Status":200,"Created":"2015-10-23 09:20:54","Updated":"2015-10-23 09:20:54"},{"GeonameId":673363,"Name":"Comuna Mihai Viteazu","Latitude":"44.63727","Longitude":"28.7046","CountryCode":"RO","Population":0,"Status":200,"Created":"2015-10-23 09:20:54","Updated":"2015-10-23 09:20:54"},{"GeonameId":673373,"Name":"Comuna Mihail Kog\u0103lniceanu","Latitude":"44.40479","Longitude":"28.51919","CountryCode":"RO","Population":0,"Status":200,"Created":"2015-10-23 09:20:54","Updated":"2015-10-23 09:20:54"},{"GeonameId":673149,"Name":"Comuna Mircea Vod\u0103","Latitude":"44.30137","Longitude":"28.18647","CountryCode":"RO","Population":0,"Status":200,"Created":"2015-10-23 09:20:54","Updated":"2015-10-23 09:20:54"},{"GeonameId":672270,"Name":"Comuna Nicolae B\u0103lcescu","Latitude":"44.39829","Longitude":"28.35323","CountryCode":"RO","Population":0,"Status":200,"Created":"2015-10-23 09:20:54","Updated":"2015-10-23 09:20:54"},{"GeonameId":671822,"Name":"Comuna Oltina","Latitude":"44.13879","Longitude":"27.64881","CountryCode":"RO","Population":0,"Status":200,"Created":"2015-10-23 09:20:54","Updated":"2015-10-23 09:20:54"},{"GeonameId":671631,"Name":"Comuna Ostrov","Latitude":"44.08152","Longitude":"27.42046","CountryCode":"RO","Population":0,"Status":200,"Created":"2015-10-23 09:20:54","Updated":"2015-10-23 09:20:54"},{"GeonameId":671379,"Name":"Comuna Pantelimon","Latitude":"44.60047","Longitude":"28.36014","CountryCode":"RO","Population":0,"Status":200,"Created":"2015-10-23 09:20:54","Updated":"2015-10-23 09:20:54"},{"GeonameId":671183,"Name":"Comuna Pecineaga","Latitude":"43.88676","Longitude":"28.51012","CountryCode":"RO","Population":0,"Status":200,"Created":"2015-10-23 09:20:54","Updated":"2015-10-23 09:20:54"},{"GeonameId":671063,"Name":"Comuna Pe\u015ftera","Latitude":"44.18951","Longitude":"28.10722","CountryCode":"RO","Population":0,"Status":200,"Created":"2015-10-23 09:20:54","Updated":"2015-10-23 09:20:54"},{"GeonameId":670375,"Name":"Comuna Poarta Alb\u0103","Latitude":"44.21622","Longitude":"28.41904","CountryCode":"RO","Population":0,"Status":200,"Created":"2015-10-23 09:20:54","Updated":"2015-10-23 09:20:54"},{"GeonameId":669145,"Name":"Comuna Rasova","Latitude":"44.25918","Longitude":"27.96962","CountryCode":"RO","Population":0,"Status":200,"Created":"2015-10-23 09:20:54","Updated":"2015-10-23 09:20:54"},{"GeonameId":668156,"Name":"Comuna Saligny","Latitude":"44.28318","Longitude":"28.08929","CountryCode":"RO","Population":0,"Status":200,"Created":"2015-10-23 09:20:54","Updated":"2015-10-23 09:20:54"},{"GeonameId":668061,"Name":"Comuna Saraiu","Latitude":"44.71747","Longitude":"28.14732","CountryCode":"RO","Population":0,"Status":200,"Created":"2015-10-23 09:20:54","Updated":"2015-10-23 09:20:54"},{"GeonameId":667440,"Name":"Comuna Seimeni","Latitude":"44.40184","Longitude":"28.08756","CountryCode":"RO","Population":0,"Status":200,"Created":"2015-10-23 09:20:54","Updated":"2015-10-23 09:20:54"},{"GeonameId":667176,"Name":"Comuna Sili\u015ftea","Latitude":"44.42359","Longitude":"28.20967","CountryCode":"RO","Population":0,"Status":200,"Created":"2015-10-23 09:20:54","Updated":"2015-10-23 09:20:54"},{"GeonameId":668313,"Name":"Comuna S\u0103cele","Latitude":"44.48866","Longitude":"28.66382","CountryCode":"RO","Population":0,"Status":200,"Created":"2015-10-23 09:20:54","Updated":"2015-10-23 09:20:54"},{"GeonameId":664773,"Name":"Comuna Topalu","Latitude":"44.52116","Longitude":"28.07081","CountryCode":"RO","Population":0,"Status":200,"Created":"2015-10-23 09:20:54","Updated":"2015-10-23 09:20:54"},{"GeonameId":664721,"Name":"Comuna Topraisar","Latitude":"44.03126","Longitude":"28.48845","CountryCode":"RO","Population":0,"Status":200,"Created":"2015-10-23 09:20:54","Updated":"2015-10-23 09:20:54"},{"GeonameId":664707,"Name":"Comuna Tortoman","Latitude":"44.34569","Longitude":"28.26562","CountryCode":"RO","Population":0,"Status":200,"Created":"2015-10-23 09:20:54","Updated":"2015-10-23 09:20:54"},{"GeonameId":664395,"Name":"Comuna Tuzla","Latitude":"44.00158","Longitude":"28.63874","CountryCode":"RO","Population":0,"Status":200,"Created":"2015-10-23 09:20:54","Updated":"2015-10-23 09:20:54"},{"GeonameId":664994,"Name":"Comuna T\u00e2rgu\u015for","Latitude":"44.47713","Longitude":"28.38821","CountryCode":"RO","Population":0,"Status":200,"Created":"2015-10-23 09:20:54","Updated":"2015-10-23 09:20:54"},{"GeonameId":663233,"Name":"Comuna Valu lui Traian","Latitude":"44.16386","Longitude":"28.46526","CountryCode":"RO","Population":0,"Status":200,"Created":"2015-10-23 09:20:54","Updated":"2015-10-23 09:20:54"},{"GeonameId":662385,"Name":"Comuna Vulturu","Latitude":"44.64806","Longitude":"28.27294","CountryCode":"RO","Population":0,"Status":200,"Created":"2015-10-23 09:20:54","Updated":"2015-10-23 09:20:54"},{"GeonameId":679216,"Name":"Comun\u0103 Dobromir","Latitude":"44.01813","Longitude":"27.83888","CountryCode":"RO","Population":0,"Status":200,"Created":"2015-10-23 09:20:54","Updated":"2015-10-23 09:20:54"},{"GeonameId":8334667,"Name":"Municipiul Constan\u0163a","Latitude":"44.21414","Longitude":"28.61862","CountryCode":"RO","Population":0,"Status":200,"Created":"2015-10-23 09:20:54","Updated":"2015-10-23 09:20:54"},{"GeonameId":8334941,"Name":"Municipiul Mangalia","Latitude":"43.85085","Longitude":"28.5978","CountryCode":"RO","Population":0,"Status":200,"Created":"2015-10-23 09:20:54","Updated":"2015-10-23 09:20:54"},{"GeonameId":8334740,"Name":"Municipiul Medgidia","Latitude":"44.22795","Longitude":"28.26801","CountryCode":"RO","Population":0,"Status":200,"Created":"2015-10-23 09:20:54","Updated":"2015-10-23 09:20:54"},{"GeonameId":685471,"Name":"Ora\u015f B\u00e3neasa","Latitude":"44.05008","Longitude":"27.7143","CountryCode":"RO","Population":0,"Status":200,"Created":"2015-10-23 09:20:54","Updated":"2015-10-23 09:20:54"},{"GeonameId":8334733,"Name":"Ora\u015f Cernavod\u00e3","Latitude":"44.34331","Longitude":"28.03694","CountryCode":"RO","Population":0,"Status":200,"Created":"2015-10-23 09:20:54","Updated":"2015-10-23 09:20:54"},{"GeonameId":8334674,"Name":"Ora\u015f Eforie","Latitude":"44.04668","Longitude":"28.64112","CountryCode":"RO","Population":0,"Status":200,"Created":"2015-10-23 09:20:54","Updated":"2015-10-23 09:20:54"},{"GeonameId":8334909,"Name":"Ora\u015f H\u00e2r\u015fova","Latitude":"44.68721","Longitude":"27.94785","CountryCode":"RO","Population":0,"Status":200,"Created":"2015-10-23 09:20:54","Updated":"2015-10-23 09:20:54"},{"GeonameId":8334675,"Name":"Ora\u015f Murfatlar","Latitude":"44.1709","Longitude":"28.38185","CountryCode":"RO","Population":0,"Status":200,"Created":"2015-10-23 09:20:54","Updated":"2015-10-23 09:20:54"},{"GeonameId":672342,"Name":"Ora\u015f Negru Vod\u00e3","Latitude":"43.79534","Longitude":"28.28041","CountryCode":"RO","Population":0,"Status":200,"Created":"2015-10-23 09:20:54","Updated":"2015-10-23 09:20:54"},{"GeonameId":672485,"Name":"Ora\u015f N\u00e3vodari","Latitude":"44.30511","Longitude":"28.61407","CountryCode":"RO","Population":0,"Status":200,"Created":"2015-10-23 09:20:54","Updated":"2015-10-23 09:20:54"},{"GeonameId":671583,"Name":"Ora\u015f Ovidiu","Latitude":"44.23828","Longitude":"28.5321","CountryCode":"RO","Population":0,"Status":200,"Created":"2015-10-23 09:20:54","Updated":"2015-10-23 09:20:54"},{"GeonameId":8334676,"Name":"Ora\u015f Techirghiol","Latitude":"44.05497","Longitude":"28.59539","CountryCode":"RO","Population":0,"Status":200,"Created":"2015-10-23 09:20:54","Updated":"2015-10-23 09:20:54"}]