[{"GeonameId":686280,"Name":"Comuna Apa\u0163a","Latitude":"45.95043","Longitude":"25.53312","CountryCode":"RO","Population":0,"Status":200,"Created":"2015-10-23 09:20:54","Updated":"2015-10-23 09:20:54"},{"GeonameId":8334645,"Name":"Comuna Augustin","Latitude":"46.04613","Longitude":"25.55333","CountryCode":"RO","Population":0,"Status":200,"Created":"2015-10-23 09:20:54","Updated":"2015-10-23 09:20:54"},{"GeonameId":685202,"Name":"Comuna Beclean","Latitude":"45.83119","Longitude":"24.92317","CountryCode":"RO","Population":0,"Status":200,"Created":"2015-10-23 09:20:54","Updated":"2015-10-23 09:20:54"},{"GeonameId":684476,"Name":"Comuna Bod","Latitude":"45.75987","Longitude":"25.62077","CountryCode":"RO","Population":0,"Status":200,"Created":"2015-10-23 09:20:54","Updated":"2015-10-23 09:20:54"},{"GeonameId":683888,"Name":"Comuna Bran","Latitude":"45.51412","Longitude":"25.37289","CountryCode":"RO","Population":0,"Status":200,"Created":"2015-10-23 09:20:54","Updated":"2015-10-23 09:20:54"},{"GeonameId":683421,"Name":"Comuna Budila","Latitude":"45.67432","Longitude":"25.80793","CountryCode":"RO","Population":0,"Status":200,"Created":"2015-10-23 09:20:54","Updated":"2015-10-23 09:20:54"},{"GeonameId":683272,"Name":"Comuna Bune\u015fti","Latitude":"46.10042","Longitude":"25.05528","CountryCode":"RO","Population":0,"Status":200,"Created":"2015-10-23 09:20:54","Updated":"2015-10-23 09:20:54"},{"GeonameId":682580,"Name":"Comuna Ca\u0163a","Latitude":"46.13174","Longitude":"25.26977","CountryCode":"RO","Population":0,"Status":200,"Created":"2015-10-23 09:20:54","Updated":"2015-10-23 09:20:54"},{"GeonameId":681826,"Name":"Comuna Cincu","Latitude":"45.90712","Longitude":"24.77333","CountryCode":"RO","Population":0,"Status":200,"Created":"2015-10-23 09:20:54","Updated":"2015-10-23 09:20:54"},{"GeonameId":681032,"Name":"Comuna Comana","Latitude":"45.91357","Longitude":"25.2208","CountryCode":"RO","Population":0,"Status":200,"Created":"2015-10-23 09:20:54","Updated":"2015-10-23 09:20:54"},{"GeonameId":680165,"Name":"Comuna Cristian","Latitude":"45.62474","Longitude":"25.48292","CountryCode":"RO","Population":0,"Status":200,"Created":"2015-10-23 09:20:54","Updated":"2015-10-23 09:20:54"},{"GeonameId":680110,"Name":"Comuna Crizbav","Latitude":"45.8207","Longitude":"25.46739","CountryCode":"RO","Population":0,"Status":200,"Created":"2015-10-23 09:20:54","Updated":"2015-10-23 09:20:54"},{"GeonameId":678888,"Name":"Comuna Dr\u0103gu\u015f","Latitude":"45.76146","Longitude":"24.77906","CountryCode":"RO","Population":0,"Status":200,"Created":"2015-10-23 09:20:54","Updated":"2015-10-23 09:20:54"},{"GeonameId":678677,"Name":"Comuna Dumbr\u0103vi\u0163a","Latitude":"45.76667","Longitude":"25.43333","CountryCode":"RO","Population":0,"Status":200,"Created":"2015-10-23 09:20:54","Updated":"2015-10-23 09:20:54"},{"GeonameId":678363,"Name":"Comuna Feldioara","Latitude":"45.82829","Longitude":"25.57459","CountryCode":"RO","Population":0,"Status":200,"Created":"2015-10-23 09:20:54","Updated":"2015-10-23 09:20:54"},{"GeonameId":677832,"Name":"Comuna Fundata","Latitude":"45.44615","Longitude":"25.27775","CountryCode":"RO","Population":0,"Status":200,"Created":"2015-10-23 09:20:54","Updated":"2015-10-23 09:20:54"},{"GeonameId":676086,"Name":"Comuna Hoghiz","Latitude":"45.96602","Longitude":"25.32168","CountryCode":"RO","Population":0,"Status":200,"Created":"2015-10-23 09:20:54","Updated":"2015-10-23 09:20:54"},{"GeonameId":676080,"Name":"Comuna Holbav","Latitude":"45.65922","Longitude":"25.38744","CountryCode":"RO","Population":0,"Status":200,"Created":"2015-10-23 09:20:54","Updated":"2015-10-23 09:20:54"},{"GeonameId":676051,"Name":"Comuna Homorod","Latitude":"46.0726","Longitude":"25.33464","CountryCode":"RO","Population":0,"Status":200,"Created":"2015-10-23 09:20:54","Updated":"2015-10-23 09:20:54"},{"GeonameId":676168,"Name":"Comuna H\u00e2r\u015feni","Latitude":"45.7342","Longitude":"25.02404","CountryCode":"RO","Population":0,"Status":200,"Created":"2015-10-23 09:20:54","Updated":"2015-10-23 09:20:54"},{"GeonameId":676367,"Name":"Comuna H\u0103lchiu","Latitude":"45.76743","Longitude":"25.52991","CountryCode":"RO","Population":0,"Status":200,"Created":"2015-10-23 09:20:54","Updated":"2015-10-23 09:20:54"},{"GeonameId":676303,"Name":"Comuna H\u0103rman","Latitude":"45.73727","Longitude":"25.70451","CountryCode":"RO","Population":0,"Status":200,"Created":"2015-10-23 09:20:54","Updated":"2015-10-23 09:20:54"},{"GeonameId":675265,"Name":"Comuna Jibert","Latitude":"46.00173","Longitude":"25.07355","CountryCode":"RO","Population":0,"Status":200,"Created":"2015-10-23 09:20:54","Updated":"2015-10-23 09:20:54"},{"GeonameId":674719,"Name":"Comuna Lisa","Latitude":"45.7276","Longitude":"24.86876","CountryCode":"RO","Population":0,"Status":200,"Created":"2015-10-23 09:20:54","Updated":"2015-10-23 09:20:54"},{"GeonameId":672969,"Name":"Comuna Moieciu","Latitude":"45.48848","Longitude":"25.30962","CountryCode":"RO","Population":0,"Status":200,"Created":"2015-10-23 09:20:54","Updated":"2015-10-23 09:20:54"},{"GeonameId":673217,"Name":"Comuna M\u00e2ndra","Latitude":"45.81219","Longitude":"25.03262","CountryCode":"RO","Population":0,"Status":200,"Created":"2015-10-23 09:20:54","Updated":"2015-10-23 09:20:54"},{"GeonameId":674195,"Name":"Comuna M\u00e3ieru\u015f","Latitude":"45.89326","Longitude":"25.55432","CountryCode":"RO","Population":0,"Status":200,"Created":"2015-10-23 09:20:54","Updated":"2015-10-23 09:20:54"},{"GeonameId":671696,"Name":"Comuna Ormeni\u015f","Latitude":"46.00473","Longitude":"25.55683","CountryCode":"RO","Population":0,"Status":200,"Created":"2015-10-23 09:20:54","Updated":"2015-10-23 09:20:54"},{"GeonameId":670055,"Name":"Comuna Poiana M\u0103rului","Latitude":"45.60462","Longitude":"25.30927","CountryCode":"RO","Population":0,"Status":200,"Created":"2015-10-23 09:20:54","Updated":"2015-10-23 09:20:54"},{"GeonameId":669690,"Name":"Comuna Prejmer","Latitude":"45.73164","Longitude":"25.78673","CountryCode":"RO","Population":0,"Status":200,"Created":"2015-10-23 09:20:54","Updated":"2015-10-23 09:20:54"},{"GeonameId":670746,"Name":"Comuna P\u00e2r\u00e2u","Latitude":"45.85139","Longitude":"25.21584","CountryCode":"RO","Population":0,"Status":200,"Created":"2015-10-23 09:20:54","Updated":"2015-10-23 09:20:54"},{"GeonameId":8334946,"Name":"Comuna Raco\u015f","Latitude":"46.02051","Longitude":"25.39563","CountryCode":"RO","Population":0,"Status":200,"Created":"2015-10-23 09:20:54","Updated":"2015-10-23 09:20:54"},{"GeonameId":669040,"Name":"Comuna Recea","Latitude":"45.74312","Longitude":"24.94086","CountryCode":"RO","Population":0,"Status":200,"Created":"2015-10-23 09:20:54","Updated":"2015-10-23 09:20:54"},{"GeonameId":667140,"Name":"Comuna S\u00e2mb\u0103ta de Sus","Latitude":"45.72698","Longitude":"24.81067","CountryCode":"RO","Population":0,"Status":200,"Created":"2015-10-23 09:20:54","Updated":"2015-10-23 09:20:54"},{"GeonameId":666957,"Name":"Comuna S\u00e2npetru","Latitude":"45.71082","Longitude":"25.63678","CountryCode":"RO","Population":0,"Status":200,"Created":"2015-10-23 09:20:54","Updated":"2015-10-23 09:20:54"},{"GeonameId":665270,"Name":"Comuna Teliu","Latitude":"45.69856","Longitude":"25.8559","CountryCode":"RO","Population":0,"Status":200,"Created":"2015-10-23 09:20:54","Updated":"2015-10-23 09:20:54"},{"GeonameId":665156,"Name":"Comuna Ticu\u015fu Vechi","Latitude":"45.92823","Longitude":"25.09346","CountryCode":"RO","Population":0,"Status":200,"Created":"2015-10-23 09:20:54","Updated":"2015-10-23 09:20:54"},{"GeonameId":665496,"Name":"Comuna T\u0103rlungeni","Latitude":"45.64579","Longitude":"25.77368","CountryCode":"RO","Population":0,"Status":200,"Created":"2015-10-23 09:20:54","Updated":"2015-10-23 09:20:54"},{"GeonameId":664391,"Name":"Comuna Ucea de Jos","Latitude":"45.7798","Longitude":"24.68477","CountryCode":"RO","Population":0,"Status":200,"Created":"2015-10-23 09:20:54","Updated":"2015-10-23 09:20:54"},{"GeonameId":664262,"Name":"Comuna Ungra","Latitude":"45.97828","Longitude":"25.21859","CountryCode":"RO","Population":0,"Status":200,"Created":"2015-10-23 09:20:54","Updated":"2015-10-23 09:20:54"},{"GeonameId":663221,"Name":"Comuna Vama Buz\u0103ului","Latitude":"45.60258","Longitude":"25.97991","CountryCode":"RO","Population":0,"Status":200,"Created":"2015-10-23 09:20:54","Updated":"2015-10-23 09:20:54"},{"GeonameId":662678,"Name":"Comuna Vi\u015ftea de Jos","Latitude":"45.77201","Longitude":"24.75237","CountryCode":"RO","Population":0,"Status":200,"Created":"2015-10-23 09:20:54","Updated":"2015-10-23 09:20:54"},{"GeonameId":662532,"Name":"Comuna Voila","Latitude":"45.81815","Longitude":"24.8406","CountryCode":"RO","Population":0,"Status":200,"Created":"2015-10-23 09:20:54","Updated":"2015-10-23 09:20:54"},{"GeonameId":662427,"Name":"Comuna Vulcan","Latitude":"45.6496","Longitude":"25.41671","CountryCode":"RO","Population":0,"Status":200,"Created":"2015-10-23 09:20:54","Updated":"2015-10-23 09:20:54"},{"GeonameId":667348,"Name":"Comuna \u015eercaia","Latitude":"45.83002","Longitude":"25.14114","CountryCode":"RO","Population":0,"Status":200,"Created":"2015-10-23 09:20:54","Updated":"2015-10-23 09:20:54"},{"GeonameId":667077,"Name":"Comuna \u015einca Nou\u0103","Latitude":"45.69667","Longitude":"25.22177","CountryCode":"RO","Population":0,"Status":200,"Created":"2015-10-23 09:20:54","Updated":"2015-10-23 09:20:54"},{"GeonameId":667075,"Name":"Comuna \u015einca Veche","Latitude":"45.75892","Longitude":"25.15578","CountryCode":"RO","Population":0,"Status":200,"Created":"2015-10-23 09:20:54","Updated":"2015-10-23 09:20:54"},{"GeonameId":666599,"Name":"Comuna \u015eoar\u015f","Latitude":"45.92871","Longitude":"24.92764","CountryCode":"RO","Population":0,"Status":200,"Created":"2015-10-23 09:20:54","Updated":"2015-10-23 09:20:54"},{"GeonameId":8334708,"Name":"Municipiul  Codlea","Latitude":"45.69944","Longitude":"25.44778","CountryCode":"RO","Population":0,"Status":200,"Created":"2015-10-23 09:20:54","Updated":"2015-10-23 09:20:54"},{"GeonameId":6691648,"Name":"Municipiul Bra\u015fov","Latitude":"45.65053","Longitude":"25.60913","CountryCode":"RO","Population":0,"Status":200,"Created":"2015-10-23 09:20:54","Updated":"2015-10-23 09:20:54"},{"GeonameId":8334693,"Name":"Municipiul F\u00e3g\u00e3ra\u015f","Latitude":"45.84098","Longitude":"24.97348","CountryCode":"RO","Population":0,"Status":200,"Created":"2015-10-23 09:20:54","Updated":"2015-10-23 09:20:54"},{"GeonameId":8334720,"Name":"Municipiul S\u00e3cele","Latitude":"45.61772","Longitude":"25.6989","CountryCode":"RO","Population":0,"Status":200,"Created":"2015-10-23 09:20:54","Updated":"2015-10-23 09:20:54"},{"GeonameId":677381,"Name":"Ora\u015f Ghimbav","Latitude":"45.66397","Longitude":"25.50836","CountryCode":"RO","Population":0,"Status":200,"Created":"2015-10-23 09:20:54","Updated":"2015-10-23 09:20:54"},{"GeonameId":8334974,"Name":"Ora\u015f Predeal","Latitude":"45.53151","Longitude":"25.5721","CountryCode":"RO","Population":0,"Status":200,"Created":"2015-10-23 09:20:54","Updated":"2015-10-23 09:20:54"},{"GeonameId":8334689,"Name":"Ora\u015f Rupea","Latitude":"46.05903","Longitude":"25.18717","CountryCode":"RO","Population":0,"Status":200,"Created":"2015-10-23 09:20:54","Updated":"2015-10-23 09:20:54"},{"GeonameId":8334939,"Name":"Ora\u015f R\u00e2\u015fnov","Latitude":"45.59108","Longitude":"25.46393","CountryCode":"RO","Population":0,"Status":200,"Created":"2015-10-23 09:20:54","Updated":"2015-10-23 09:20:54"},{"GeonameId":8334662,"Name":"Ora\u015f Victoria","Latitude":"45.72968","Longitude":"24.7028","CountryCode":"RO","Population":0,"Status":200,"Created":"2015-10-23 09:20:54","Updated":"2015-10-23 09:20:54"},{"GeonameId":662282,"Name":"Ora\u015f Z\u00e3rne\u015fti","Latitude":"45.5565","Longitude":"25.35205","CountryCode":"RO","Population":0,"Status":200,"Created":"2015-10-23 09:20:54","Updated":"2015-10-23 09:20:54"}]