[{"GeonameId":686681,"Name":"Comuna Ad\u0103\u015feni","Latitude":"48.06287","Longitude":"26.95205","CountryCode":"RO","Population":0,"Status":200,"Created":"2015-10-23 09:20:59","Updated":"2015-10-23 09:20:59"},{"GeonameId":686546,"Name":"Comuna Albe\u015fti","Latitude":"47.68387","Longitude":"27.08704","CountryCode":"RO","Population":0,"Status":200,"Created":"2015-10-23 09:20:59","Updated":"2015-10-23 09:20:59"},{"GeonameId":686027,"Name":"Comuna Avr\u0103meni","Latitude":"48.02439","Longitude":"26.95734","CountryCode":"RO","Population":0,"Status":200,"Created":"2015-10-23 09:20:59","Updated":"2015-10-23 09:20:59"},{"GeonameId":684565,"Name":"Comuna Bl\u00e2nde\u015fti","Latitude":"47.71218","Longitude":"26.89193","CountryCode":"RO","Population":0,"Status":200,"Created":"2015-10-23 09:20:59","Updated":"2015-10-23 09:20:59"},{"GeonameId":683655,"Name":"Comuna Brosc\u0103u\u0163i","Latitude":"47.95596","Longitude":"26.46648","CountryCode":"RO","Population":0,"Status":200,"Created":"2015-10-23 09:20:59","Updated":"2015-10-23 09:20:59"},{"GeonameId":683916,"Name":"Comuna Br\u0103e\u015fti","Latitude":"47.84903","Longitude":"26.45715","CountryCode":"RO","Population":0,"Status":200,"Created":"2015-10-23 09:20:59","Updated":"2015-10-23 09:20:59"},{"GeonameId":685505,"Name":"Comuna B\u0103lu\u015feni","Latitude":"47.67758","Longitude":"26.77855","CountryCode":"RO","Population":0,"Status":200,"Created":"2015-10-23 09:20:59","Updated":"2015-10-23 09:20:59"},{"GeonameId":680976,"Name":"Comuna Conce\u015fti","Latitude":"48.14676","Longitude":"26.57937","CountryCode":"RO","Population":0,"Status":200,"Created":"2015-10-23 09:20:59","Updated":"2015-10-23 09:20:59"},{"GeonameId":680910,"Name":"Comuna Cop\u0103l\u0103u","Latitude":"47.6112","Longitude":"26.86778","CountryCode":"RO","Population":0,"Status":200,"Created":"2015-10-23 09:20:59","Updated":"2015-10-23 09:20:59"},{"GeonameId":680814,"Name":"Comuna Corl\u0103teni","Latitude":"47.93121","Longitude":"26.58515","CountryCode":"RO","Population":0,"Status":200,"Created":"2015-10-23 09:20:59","Updated":"2015-10-23 09:20:59"},{"GeonameId":680738,"Name":"Comuna Corni","Latitude":"47.64025","Longitude":"26.60869","CountryCode":"RO","Population":0,"Status":200,"Created":"2015-10-23 09:20:59","Updated":"2015-10-23 09:20:59"},{"GeonameId":680528,"Name":"Comuna Co\u015fula","Latitude":"47.61915","Longitude":"26.78553","CountryCode":"RO","Population":0,"Status":200,"Created":"2015-10-23 09:20:59","Updated":"2015-10-23 09:20:59"},{"GeonameId":680439,"Name":"Comuna Co\u0163u\u015fca","Latitude":"48.12109","Longitude":"26.87179","CountryCode":"RO","Population":0,"Status":200,"Created":"2015-10-23 09:20:59","Updated":"2015-10-23 09:20:59"},{"GeonameId":680172,"Name":"Comuna Criste\u015fti","Latitude":"47.61482","Longitude":"26.71546","CountryCode":"RO","Population":0,"Status":200,"Created":"2015-10-23 09:20:59","Updated":"2015-10-23 09:20:59"},{"GeonameId":680160,"Name":"Comuna Cristine\u015fti","Latitude":"48.10199","Longitude":"26.36951","CountryCode":"RO","Population":0,"Status":200,"Created":"2015-10-23 09:20:59","Updated":"2015-10-23 09:20:59"},{"GeonameId":8334781,"Name":"Comuna Curte\u015fti","Latitude":"47.70275","Longitude":"26.64109","CountryCode":"RO","Population":0,"Status":200,"Created":"2015-10-23 09:20:59","Updated":"2015-10-23 09:20:59"},{"GeonameId":681815,"Name":"Comuna C\u00e2nde\u015fti","Latitude":"47.92325","Longitude":"26.2205","CountryCode":"RO","Population":0,"Status":200,"Created":"2015-10-23 09:20:59","Updated":"2015-10-23 09:20:59"},{"GeonameId":683017,"Name":"Comuna C\u0103l\u0103ra\u015fi","Latitude":"47.6034","Longitude":"27.27766","CountryCode":"RO","Population":0,"Status":200,"Created":"2015-10-23 09:20:59","Updated":"2015-10-23 09:20:59"},{"GeonameId":679466,"Name":"Comuna Dersca","Latitude":"47.98958","Longitude":"26.21496","CountryCode":"RO","Population":0,"Status":200,"Created":"2015-10-23 09:20:59","Updated":"2015-10-23 09:20:59"},{"GeonameId":679397,"Name":"Comuna Dim\u0103cheni","Latitude":"47.91832","Longitude":"26.54362","CountryCode":"RO","Population":0,"Status":200,"Created":"2015-10-23 09:20:59","Updated":"2015-10-23 09:20:59"},{"GeonameId":679278,"Name":"Comuna Dob\u00e2rceni","Latitude":"47.83289","Longitude":"27.07611","CountryCode":"RO","Population":0,"Status":200,"Created":"2015-10-23 09:20:59","Updated":"2015-10-23 09:20:59"},{"GeonameId":678876,"Name":"Comuna Dr\u0103gu\u015feni","Latitude":"48.0329","Longitude":"26.81987","CountryCode":"RO","Population":0,"Status":200,"Created":"2015-10-23 09:20:59","Updated":"2015-10-23 09:20:59"},{"GeonameId":678603,"Name":"Comuna Durne\u015fti","Latitude":"47.76992","Longitude":"27.09406","CountryCode":"RO","Population":0,"Status":200,"Created":"2015-10-23 09:20:59","Updated":"2015-10-23 09:20:59"},{"GeonameId":679350,"Name":"Comuna D\u00e2ngeni","Latitude":"47.84762","Longitude":"26.94817","CountryCode":"RO","Population":0,"Status":200,"Created":"2015-10-23 09:20:59","Updated":"2015-10-23 09:20:59"},{"GeonameId":677871,"Name":"Comuna Frumu\u015fica","Latitude":"47.52602","Longitude":"26.87967","CountryCode":"RO","Population":0,"Status":200,"Created":"2015-10-23 09:20:59","Updated":"2015-10-23 09:20:59"},{"GeonameId":677507,"Name":"Comuna George Enescu","Latitude":"48.03617","Longitude":"26.51437","CountryCode":"RO","Population":0,"Status":200,"Created":"2015-10-23 09:20:59","Updated":"2015-10-23 09:20:59"},{"GeonameId":676917,"Name":"Comuna Gorb\u0103ne\u015fti","Latitude":"47.7745","Longitude":"26.88143","CountryCode":"RO","Population":0,"Status":200,"Created":"2015-10-23 09:20:59","Updated":"2015-10-23 09:20:59"},{"GeonameId":676267,"Name":"Comuna Hav\u00e2rna","Latitude":"48.05683","Longitude":"26.68314","CountryCode":"RO","Population":0,"Status":200,"Created":"2015-10-23 09:20:59","Updated":"2015-10-23 09:20:59"},{"GeonameId":8334872,"Name":"Comuna Hili\u015feu-Horia","Latitude":"48.01336","Longitude":"26.29685","CountryCode":"RO","Population":0,"Status":200,"Created":"2015-10-23 09:20:59","Updated":"2015-10-23 09:20:59"},{"GeonameId":676137,"Name":"Comuna Hlipiceni","Latitude":"47.60401","Longitude":"27.1708","CountryCode":"RO","Population":0,"Status":200,"Created":"2015-10-23 09:20:59","Updated":"2015-10-23 09:20:59"},{"GeonameId":675940,"Name":"Comuna Hude\u015fti","Latitude":"48.1528","Longitude":"26.50102","CountryCode":"RO","Population":0,"Status":200,"Created":"2015-10-23 09:20:59","Updated":"2015-10-23 09:20:59"},{"GeonameId":676333,"Name":"Comuna H\u0103ne\u015fti","Latitude":"47.91987","Longitude":"27.01151","CountryCode":"RO","Population":0,"Status":200,"Created":"2015-10-23 09:20:59","Updated":"2015-10-23 09:20:59"},{"GeonameId":675780,"Name":"Comuna Ib\u0103ne\u015fti","Latitude":"48.04435","Longitude":"26.4045","CountryCode":"RO","Population":0,"Status":200,"Created":"2015-10-23 09:20:59","Updated":"2015-10-23 09:20:59"},{"GeonameId":674887,"Name":"Comuna Leorda","Latitude":"47.81862","Longitude":"26.45408","CountryCode":"RO","Population":0,"Status":200,"Created":"2015-10-23 09:20:59","Updated":"2015-10-23 09:20:59"},{"GeonameId":674578,"Name":"Comuna Lozna","Latitude":"47.9441","Longitude":"26.28694","CountryCode":"RO","Population":0,"Status":200,"Created":"2015-10-23 09:20:59","Updated":"2015-10-23 09:20:59"},{"GeonameId":674443,"Name":"Comuna Lunca","Latitude":"47.62751","Longitude":"26.9924","CountryCode":"RO","Population":0,"Status":200,"Created":"2015-10-23 09:20:59","Updated":"2015-10-23 09:20:59"},{"GeonameId":673907,"Name":"Comuna Manoleasa","Latitude":"48.00852","Longitude":"27.07951","CountryCode":"RO","Population":0,"Status":200,"Created":"2015-10-23 09:20:59","Updated":"2015-10-23 09:20:59"},{"GeonameId":8334651,"Name":"Comuna Mihai Eminescu","Latitude":"47.76632","Longitude":"26.56267","CountryCode":"RO","Population":0,"Status":200,"Created":"2015-10-23 09:20:59","Updated":"2015-10-23 09:20:59"},{"GeonameId":673388,"Name":"Comuna Mih\u0103ileni","Latitude":"47.95552","Longitude":"26.16204","CountryCode":"RO","Population":0,"Status":200,"Created":"2015-10-23 09:20:59","Updated":"2015-10-23 09:20:59"},{"GeonameId":673358,"Name":"Comuna Mih\u0103l\u0103\u015feni","Latitude":"47.87956","Longitude":"27.0962","CountryCode":"RO","Population":0,"Status":200,"Created":"2015-10-23 09:20:59","Updated":"2015-10-23 09:20:59"},{"GeonameId":673314,"Name":"Comuna Mileanca","Latitude":"48.09121","Longitude":"26.72965","CountryCode":"RO","Population":0,"Status":200,"Created":"2015-10-23 09:20:59","Updated":"2015-10-23 09:20:59"},{"GeonameId":673053,"Name":"Comuna Mitoc","Latitude":"48.11288","Longitude":"27.00423","CountryCode":"RO","Population":0,"Status":200,"Created":"2015-10-23 09:20:59","Updated":"2015-10-23 09:20:59"},{"GeonameId":672239,"Name":"Comuna Nic\u015feni","Latitude":"47.8617","Longitude":"26.66023","CountryCode":"RO","Population":0,"Status":200,"Created":"2015-10-23 09:20:59","Updated":"2015-10-23 09:20:59"},{"GeonameId":669946,"Name":"Comuna Pom\u00e2rla","Latitude":"48.06225","Longitude":"26.3209","CountryCode":"RO","Population":0,"Status":200,"Created":"2015-10-23 09:20:59","Updated":"2015-10-23 09:20:59"},{"GeonameId":669729,"Name":"Comuna Pr\u0103jeni","Latitude":"47.49577","Longitude":"27.02386","CountryCode":"RO","Population":0,"Status":200,"Created":"2015-10-23 09:20:59","Updated":"2015-10-23 09:20:59"},{"GeonameId":671424,"Name":"Comuna P\u0103ltini\u015f","Latitude":"48.23494","Longitude":"26.68555","CountryCode":"RO","Population":0,"Status":200,"Created":"2015-10-23 09:20:59","Updated":"2015-10-23 09:20:59"},{"GeonameId":668848,"Name":"Comuna Ripiceni","Latitude":"47.91899","Longitude":"27.13958","CountryCode":"RO","Population":0,"Status":200,"Created":"2015-10-23 09:20:59","Updated":"2015-10-23 09:20:59"},{"GeonameId":668735,"Name":"Comuna Roma","Latitude":"47.84497","Longitude":"26.57084","CountryCode":"RO","Population":0,"Status":200,"Created":"2015-10-23 09:20:59","Updated":"2015-10-23 09:20:59"},{"GeonameId":668726,"Name":"Comuna Rom\u00e2ne\u015fti","Latitude":"47.7086","Longitude":"27.23491","CountryCode":"RO","Population":0,"Status":200,"Created":"2015-10-23 09:20:59","Updated":"2015-10-23 09:20:59"},{"GeonameId":8334951,"Name":"Comuna R\u00e3d\u00e3u\u0163i-Prut","Latitude":"48.22492","Longitude":"26.81304","CountryCode":"RO","Population":0,"Status":200,"Created":"2015-10-23 09:20:59","Updated":"2015-10-23 09:20:59"},{"GeonameId":669370,"Name":"Comuna R\u0103chi\u0163i","Latitude":"47.77282","Longitude":"26.68847","CountryCode":"RO","Population":0,"Status":200,"Created":"2015-10-23 09:20:59","Updated":"2015-10-23 09:20:59"},{"GeonameId":669096,"Name":"Comuna R\u0103useni","Latitude":"47.55941","Longitude":"27.22551","CountryCode":"RO","Population":0,"Status":200,"Created":"2015-10-23 09:20:59","Updated":"2015-10-23 09:20:59"},{"GeonameId":8334832,"Name":"Comuna Santa Mare","Latitude":"47.63308","Longitude":"27.3026","CountryCode":"RO","Population":0,"Status":200,"Created":"2015-10-23 09:20:59","Updated":"2015-10-23 09:20:59"},{"GeonameId":666262,"Name":"Comuna St\u0103uceni","Latitude":"47.72142","Longitude":"26.77471","CountryCode":"RO","Population":0,"Status":200,"Created":"2015-10-23 09:20:59","Updated":"2015-10-23 09:20:59"},{"GeonameId":665808,"Name":"Comuna Suhar\u0103u","Latitude":"48.11697","Longitude":"26.44743","CountryCode":"RO","Population":0,"Status":200,"Created":"2015-10-23 09:20:59","Updated":"2015-10-23 09:20:59"},{"GeonameId":665787,"Name":"Comuna Suli\u0163a","Latitude":"47.63723","Longitude":"26.9351","CountryCode":"RO","Population":0,"Status":200,"Created":"2015-10-23 09:20:59","Updated":"2015-10-23 09:20:59"},{"GeonameId":664863,"Name":"Comuna Todireni","Latitude":"47.61386","Longitude":"27.10122","CountryCode":"RO","Population":0,"Status":200,"Created":"2015-10-23 09:20:59","Updated":"2015-10-23 09:20:59"},{"GeonameId":664577,"Name":"Comuna Tru\u015fe\u015fti","Latitude":"47.78058","Longitude":"26.98911","CountryCode":"RO","Population":0,"Status":200,"Created":"2015-10-23 09:20:59","Updated":"2015-10-23 09:20:59"},{"GeonameId":664574,"Name":"Comuna Tudora","Latitude":"47.50773","Longitude":"26.63397","CountryCode":"RO","Population":0,"Status":200,"Created":"2015-10-23 09:20:59","Updated":"2015-10-23 09:20:59"},{"GeonameId":664222,"Name":"Comuna Ungureni","Latitude":"47.90384","Longitude":"26.76051","CountryCode":"RO","Population":0,"Status":200,"Created":"2015-10-23 09:20:59","Updated":"2015-10-23 09:20:59"},{"GeonameId":664192,"Name":"Comuna Un\u0163eni","Latitude":"47.81164","Longitude":"26.77886","CountryCode":"RO","Population":0,"Status":200,"Created":"2015-10-23 09:20:59","Updated":"2015-10-23 09:20:59"},{"GeonameId":8334956,"Name":"Comuna Vii\u015foara","Latitude":"48.16752","Longitude":"26.74267","CountryCode":"RO","Population":0,"Status":200,"Created":"2015-10-23 09:20:59","Updated":"2015-10-23 09:20:59"},{"GeonameId":662627,"Name":"Comuna Vl\u0103deni","Latitude":"47.72216","Longitude":"26.5088","CountryCode":"RO","Population":0,"Status":200,"Created":"2015-10-23 09:20:59","Updated":"2015-10-23 09:20:59"},{"GeonameId":662552,"Name":"Comuna Vl\u0103sine\u015fti","Latitude":"47.93988","Longitude":"26.91901","CountryCode":"RO","Population":0,"Status":200,"Created":"2015-10-23 09:20:59","Updated":"2015-10-23 09:20:59"},{"GeonameId":662472,"Name":"Comuna Vorniceni","Latitude":"47.96004","Longitude":"26.64699","CountryCode":"RO","Population":0,"Status":200,"Created":"2015-10-23 09:20:59","Updated":"2015-10-23 09:20:59"},{"GeonameId":662467,"Name":"Comuna Vorona","Latitude":"47.57859","Longitude":"26.6138","CountryCode":"RO","Population":0,"Status":200,"Created":"2015-10-23 09:20:59","Updated":"2015-10-23 09:20:59"},{"GeonameId":662777,"Name":"Comuna V\u00e2rfu C\u00e2mpului","Latitude":"47.86108","Longitude":"26.31529","CountryCode":"RO","Population":0,"Status":200,"Created":"2015-10-23 09:20:59","Updated":"2015-10-23 09:20:59"},{"GeonameId":664033,"Name":"Comuna V\u0103cule\u015fti","Latitude":"47.88229","Longitude":"26.3859","CountryCode":"RO","Population":0,"Status":200,"Created":"2015-10-23 09:20:59","Updated":"2015-10-23 09:20:59"},{"GeonameId":667394,"Name":"Comuna \u015eendriceni","Latitude":"47.94657","Longitude":"26.32957","CountryCode":"RO","Population":0,"Status":200,"Created":"2015-10-23 09:20:59","Updated":"2015-10-23 09:20:59"},{"GeonameId":666084,"Name":"Comuna \u015etiubieni","Latitude":"47.97903","Longitude":"26.7642","CountryCode":"RO","Population":0,"Status":200,"Created":"2015-10-23 09:20:59","Updated":"2015-10-23 09:20:59"},{"GeonameId":680838,"Name":"Comun\u0103 Cord\u0103reni","Latitude":"48.0042","Longitude":"26.59106","CountryCode":"RO","Population":0,"Status":200,"Created":"2015-10-23 09:20:59","Updated":"2015-10-23 09:20:59"},{"GeonameId":684037,"Name":"Municipiul Boto\u015fani","Latitude":"47.73984","Longitude":"26.67156","CountryCode":"RO","Population":0,"Status":200,"Created":"2015-10-23 09:20:59","Updated":"2015-10-23 09:20:59"},{"GeonameId":8334728,"Name":"Municipiul Dorohoi","Latitude":"47.96772","Longitude":"26.41685","CountryCode":"RO","Population":0,"Status":200,"Created":"2015-10-23 09:20:59","Updated":"2015-10-23 09:20:59"},{"GeonameId":683601,"Name":"Ora\u015f Bucecea","Latitude":"47.77741","Longitude":"26.43966","CountryCode":"RO","Population":0,"Status":200,"Created":"2015-10-23 09:20:59","Updated":"2015-10-23 09:20:59"},{"GeonameId":679734,"Name":"Ora\u015f Darabani","Latitude":"48.17429","Longitude":"26.61519","CountryCode":"RO","Population":0,"Status":200,"Created":"2015-10-23 09:20:59","Updated":"2015-10-23 09:20:59"},{"GeonameId":678079,"Name":"Ora\u015f Fl\u00e3m\u00e2nzi","Latitude":"47.56193","Longitude":"26.90381","CountryCode":"RO","Population":0,"Status":200,"Created":"2015-10-23 09:20:59","Updated":"2015-10-23 09:20:59"},{"GeonameId":667755,"Name":"Ora\u015f S\u00e3veni","Latitude":"47.95998","Longitude":"26.86677","CountryCode":"RO","Population":0,"Status":200,"Created":"2015-10-23 09:20:59","Updated":"2015-10-23 09:20:59"},{"GeonameId":666225,"Name":"Ora\u015f \u015etef\u00e3ne\u015fti","Latitude":"47.78834","Longitude":"27.20601","CountryCode":"RO","Population":0,"Status":200,"Created":"2015-10-23 09:20:59","Updated":"2015-10-23 09:20:59"}]